[
  {
    "title": "DOCUMENTO AMBIENTAL PARA LA EVALUACIÓN DE IMPACTO AMBIENTAL DEL PROYECTO CONSOLIDACIÓN Y MEJORA DE LOS REGADÍOS DEL VALLE DE GÜÍMAR, TT.MM. DE GÜÍMAR, ARAFO Y CANDELARIA: RED DE RIEGO DE AGUAS REGENERADAS, 1ª FASE (TENERIFE).",
    "municipality": "GÜIMAR",
    "date": "EN REDACCION",
    "category": "MEDIOAMBIENTE",
    "LAT": "28°17′30″N",
    "LON": "16°37′45″O",
    "lat": 28.291666667,
    "lon": -16.629166667
  },
  {
    "title": "DOCUMENTO AMBIENTAL PARA LA EVALUACIÓN DE IMPACTO AMBIENTAL SIMPLIFICADA DEL PROYECTO DE DE PARQUE REGENERATIVO UNDERWATER GARDEN PARK TENERIFE. (GUÍA DE ISORA, TENERIFE)",
    "municipality": "GUIA DE ISORA",
    "date": "EN REDACCION",
    "category": "MEDIOAMBIENTE",
    "LAT": "28°17′37″N",
    "LON": "16°37′38″O",
    "lat": 28.293611111,
    "lon": -16.627222222
  },
  {
    "title": "DOCUMENTO AMBIENTAL PARA LA EVALUACIÓN DE IMPACTO AMBIENTAL DE CANTERA EL POZITO (VILLA DE MAZO, LA PALMA).",
    "municipality": "VILLA DE MAZO",
    "date": "EN REDACCION",
    "category": "MEDIOAMBIENTE",
    "LAT": "28°40′00″N",
    "LON": "17°52′00″O",
    "lat": 28.666666667,
    "lon": -17.866666667
  },
  {
    "title": "ESTUDIO ANUAL DE FAUNA DEL ÁMBITO DEL PROYECTO DE INTERÉS INSULAR PARQUE REGENERATIVO UNDERWATER GARDENS PARK TENERIFE (PUNTA BLANCA, GUÍA DE ISORA, TENERIFE)",
    "municipality": "GUIA DE ISORA",
    "date": "EN REDACCION",
    "category": "MEDIOAMBIENTE",
    "LAT": "28°17′44″N",
    "LON": "16°37′30″O",
    "lat": 28.295555556,
    "lon": -16.625
  },
  {
    "title": "DOCUMENTO AMBIENTAL PARA LA EVALUACIÓN DE IMPACTO AMBIENTAL DE PROYECTO PARQUE INUNDABLE SAN CRISTÓBAL DE LA LAGUNA (TENERIFE)",
    "municipality": "SAN CRISTOBAL DE LA LAGUNA",
    "date": "EN REDACCION",
    "category": "MEDIOAMBIENTE",
    "LAT": "28°17′51″N",
    "LON": "16°37′23″O",
    "lat": 28.2975,
    "lon": -16.623055556
  },
  {
    "title": "DOCUMENTO AMBIENTAL PARA LA EVALUACIÓN DE IMPACTO AMBIENTAL DEL PROYECTO DE EXPLOTACIÓN DE LAPILLI “LA MESITA” (GRANADILLA DE ABONA, TENERIFE)",
    "municipality": "GRANADILLA DE ABONA",
    "date": "EN REDACCION",
    "category": "MEDIOAMBIENTE",
    "LAT": "28°17′58″N",
    "LON": "16°37′16″O",
    "lat": 28.299444444,
    "lon": -16.621111111
  },
  {
    "title": "REDACCIÓN DE DOCUMENTO AMBIENTAL DE PROYECTO PROTECCIÓN DE LITORAL (TAZACORTE, LA PALMA)",
    "municipality": "TAZACORTE",
    "date": "EN REDACCION",
    "category": "MEDIOAMBIENTE",
    "LAT": "28°40′07″N",
    "LON": "17°51′53″O",
    "lat": 28.668611111,
    "lon": -17.864722222
  },
  {
    "title": "EVALUACIÓN DE IMPACTO AMBIENTAL Y ASESORAMIENTO TERRITORIAL EN EL REDACCIÓN DEL PROYECTO DE INTERCAMBIADOR DE LOS CRISTIANOS Y SOTERRAMIENTO DE LA AVENIDA CHAYOFITA, TM DE ARONA. Proyecto redactado por: Palerm & Tabares de Nava Arquitectos S.L.P.",
    "municipality": "ARONA",
    "date": "EN REDACCION",
    "category": "MEDIOAMBIENTE",
    "LAT": "28°18′06″N",
    "LON": "16°37′09″O",
    "lat": 28.301666667,
    "lon": -16.619166667
  },
  {
    "title": "COLABORACIÓN COMO ASESOR AMBIENTAL EN EL PROYECTO DE MEJORA DE LAS INFRAESTRUCTURAS Y DESARROLLO DEL PRODUCTO BIRD WATCHING (LOTE 3: COMARCA DEL SURESTE, TENERIFE, ISLAS CANARIAS). Proyecto redactado por: Burgos & Garrido Arquitectos.",
    "municipality": "FASNIA",
    "date": "EN REDACCION",
    "category": "MEDIOAMBIENTE",
    "LAT": "28°18′13″N",
    "LON": "16°37′02″O",
    "lat": 28.303611111,
    "lon": -16.617222222
  },
  {
    "title": "DOCUMENTO AMBIENTAL PARA LA EVALUACIÓN DE IMPACTO AMBIENTAL SIMPLIFICADA DEL PROYECTO DE REDUCCIÓN DE RIESGO DE DESPRENDIMIENTOS EN LA PLAYA DE BENIJO. T.M. DE SANTA CRUZ DE TENERIFE",
    "municipality": "SANTA CRUZ DE TENERIFE",
    "date": 2025,
    "category": "MEDIOAMBIENTE",
    "LAT": "28°18′20″N",
    "LON": "16°36′54″O",
    "lat": 28.305555556,
    "lon": -16.615
  },
  {
    "title": "NUEVO INVENTARIO (CENSO) DE AVIFAUNA PRESENTE EN EL ÁMBITO DE LA ACTUACIÓN DENOMINADA “CIRCUNVALACIÓN SAN SEBASTIÁN-HOSPITAL-ÁVALOS (FASE 2ª) TRAMO: CONEXIÓN GM-1-VÍA DE ACCESO A LA LOMADA-LOMO DEL CLAVO/ÁVALOS (LA GOMERA), EN CUMPLIMIENTO DEL CONDICIONANTE Nº 8 DE SU DECLARACIÓN DE IMPACTO AMBIENTAL",
    "municipality": "SAN SEBASTIAN ",
    "date": 2025,
    "category": "MEDIOAMBIENTE",
    "LAT": "28°07′00″N",
    "LON": "17°13′00″O",
    "lat": 28.116666667,
    "lon": -17.216666667
  },
  {
    "title": "DOCUMENTO AMBIENTAL PARA LA EVALUACIÓN DE IMPACTO AMBIENTAL SIMPLIFICADA DEL PROYECTO DE INSTALACIONES PARA UNA PLANTA DE VALORIZACIÓN DE RESIDUOS ORGÁNICOS (PLANTA DE COMPOSTAJE) EN OROTEANDA -LA BALSA (ARONA – TENERIFE)",
    "municipality": "ARONA",
    "date": 2024,
    "category": "MEDIOAMBIENTE",
    "LAT": "28°18′27″N",
    "LON": "16°36′47″O",
    "lat": 28.3075,
    "lon": -16.613055556
  },
  {
    "title": "DOCUMENTO AMBIENTAL PARA LA EVALUACIÓN DE IMPACTO AMBIENTAL DEL PROYECTO DE TRAZADO DE NUEVA VÍA \"AVENIDA DEL ATLÁNTICO\" (LAS GALLETAS, ARONA – TENERIFE)",
    "municipality": "ARONA",
    "date": 2024,
    "category": "MEDIOAMBIENTE",
    "LAT": "28°18′34″N",
    "LON": "16°36′40″O",
    "lat": 28.309444444,
    "lon": -16.611111111
  },
  {
    "title": "DOCUMENTO AMBIENTAL PARA LA EVALUACIÓN DE IMPACTO AMBIENTAL SIMPLIFICADA DEL PROYECTO DE VILLA TURÍSTICA (MONTAÑA DE LA PAVONA, BREÑA BAJA, LA PALMA).",
    "municipality": "BREÑA BAJA",
    "date": 2024,
    "category": "MEDIOAMBIENTE",
    "LAT": "28°40′15″N",
    "LON": "17°51′46″O",
    "lat": 28.670833333,
    "lon": -17.862777778
  },
  {
    "title": "DOCUMENTO AMBIENTAL PARA LA EVALUACIÓN DE IMPACTO AMBIENTAL SIMPLIFICADA DEL MODIFICADO DE PROYECTO DE URBANIZACIÓN PARA LA ADAPTACIÓN DEL SECTOR 3 AL II PMMIC EN EL ÁMBITO DEL ARU-3 DEL PGOU-89 (ANTIGUA, FUERTEVENTURA)",
    "municipality": "ANTIGUA",
    "date": 2024,
    "category": "MEDIOAMBIENTE",
    "LAT": "28°19′60″N",
    "LON": "14°01′00″O",
    "lat": 28.333333333,
    "lon": -14.016666667
  },
  {
    "title": "REDACCIÓN DE ANEJO DE CONTESTACIÓN DE INFORMES AL DOCUMENTO DE EVALUACIÓN AMBIENTAL DEL PROYECTO DE MODERNIZACIÓN Y MEJORA DE LOS REGADÍOS DE LA ZONA NORDESTE DE LANZAROTE. TT.MM. DE TINAJO Y TEGUISE.",
    "municipality": "TINAJO",
    "date": 2024,
    "category": "MEDIOAMBIENTE",
    "LAT": "29°02′06″N",
    "LON": "13°37′59″O",
    "lat": 29.035,
    "lon": -13.633055556
  },
  {
    "title": "REDACCIÓN DEL ESTUDIO DE IMPACTO AMBIENTAL DEL PROYECTO DE REMODELACIÓN DEL REFUGIO ALTAVISTA EN EL TEIDE (TENERIFE)",
    "municipality": "LA OROTAVA",
    "date": 2024,
    "category": "MEDIOAMBIENTE",
    "LAT": "28°18′42″N",
    "LON": "16°36′33″O",
    "lat": 28.311666667,
    "lon": -16.609166667
  },
  {
    "title": "REDACCIÓN DE ANEJO DE EVALUACIÓN AMBIENTAL DE LA ALTERNATIVA DE VERTIDO DE SALMUERA EN POZO FILTRANTE DEL PROYECTO DE MODERNIZACIÓN Y MEJORA DE LOS REGADÍOS DE LA ZONA NORDESTE DE LANZAROTE. TT.MM. DE TINAJO Y TEGUISE.",
    "municipality": "TINAJO",
    "date": 2024,
    "category": "MEDIOAMBIENTE",
    "LAT": "29°02′13″N",
    "LON": "13°37′52″O",
    "lat": 29.036944444,
    "lon": -13.631111111
  },
  {
    "title": "EVALUACIÓN DE IMPACTO AMBIENTAL SIMPLIFICADA DEL PROYECTO ESPECÍFICO SOBRE PREVENCIÓN Y CONTAMINACIÓN ATMOSFÉRICA: EXPLOTACIÓN Y TRATAMIENTO DE ÁRIDOS Y VALORIZACIÓN DE RESIDUOS NO PELIGROSOS (ARCHIPENQUE, ARICO).",
    "municipality": "ARICO",
    "date": 2024,
    "category": "MEDIOAMBIENTE",
    "LAT": "28°18′49″N",
    "LON": "16°36′26″O",
    "lat": 28.313611111,
    "lon": -16.607222222
  },
  {
    "title": "ESTUDIO DE IMPACTO AMBIENTAL PARA EL PROYECTO DE AMPLIACIÓN DE LA CONCESIÓN DIRECTA DE EXPLOTACIÓN – CDE-C101 “PIEDRA GRANDE” (GRAN CANARIA).",
    "municipality": "SAN BARTOLOME DE TIJARANA",
    "date": 2023,
    "category": "MEDIOAMBIENTE",
    "LAT": "27°58′01″N",
    "LON": "15°35′60″O",
    "lat": 27.966944444,
    "lon": -15.6
  },
  {
    "title": "REDACCIÓN DE INFORME AMBIENTAL PREVIO PARA LA DEFINICIÓN DE LOS PARÁMETROS AMBIENTALES INICIALES PARA LA INSTALACIÓN DE UNA INFRAESTRUCTURA AGRARIA EN ANTIGUA, FUERTEVENTURA",
    "municipality": "ANTIGUA",
    "date": 2023,
    "category": "MEDIOAMBIENTE",
    "LAT": "28°20′07″N",
    "LON": "14°00′53″O",
    "lat": 28.335277778,
    "lon": -14.014722222
  },
  {
    "title": "REDACCIÓN ESTUDIO DE IMPACTO AMBIENTAL DEL PROYECTO DE GRANJA DE COCHINOS EN GÜÍMAR (LOS PASITOS).",
    "municipality": "GÜIMAR",
    "date": 2023,
    "category": "MEDIOAMBIENTE",
    "LAT": "28°18′56″N",
    "LON": "16°36′18″O",
    "lat": 28.315555556,
    "lon": -16.605
  },
  {
    "title": "REDACCIÓN DEL DOCUMENTO AMBIENTAL PARA LA EVALUACIÓN AMBIENTAL ORDINARIA DE LA MODIFICACIÓN DEL PROYECTO DE REGADÍO DE LA ZONA CENTRO-SUR DE FUERTEVENTURA",
    "municipality": "JANDIA",
    "date": 2023,
    "category": "MEDIOAMBIENTE",
    "LAT": "28°20′14″N",
    "LON": "14°00′46″O",
    "lat": 28.337222222,
    "lon": -14.012777778
  },
  {
    "title": "REDACCIÓN DEL DOCUMENTO AMBIENTAL PARA LA EVALUACIÓN AMBIENTAL ORDINARIA DEL MODIFICACIÓN DEL PROYECTO DE EXPLOTACIÓN DE RECURSOS DE LA SECCIÓN A) DE LA LEY DE MINAS EN LA CANTERA DENOMINADA ANDREA (LA OLIVA, FUERTEVENTURA).",
    "municipality": "LA OLIVA",
    "date": 2023,
    "category": "MEDIOAMBIENTE",
    "LAT": "28°20′21″N",
    "LON": "14°00′39″O",
    "lat": 28.339166667,
    "lon": -14.010833333
  },
  {
    "title": "REDACCIÓN DEL DOCUMENTO AMBIENTAL PARA LA EVALUACIÓN AMBIENTAL SIMPLIFICADA DEL PROYECTO DE ESTACIÓN DEPURADORA DE AGUAS RESIDUALES PARA LAS INSTALACIONES DEL TELEFÉRICO DEL TEIDE (LA OROTAVA, TENERIFE).",
    "municipality": "LA OROTAVA",
    "date": 2023,
    "category": "MEDIOAMBIENTE",
    "LAT": "28°19′03″N",
    "LON": "16°36′11″O",
    "lat": 28.3175,
    "lon": -16.603055556
  },
  {
    "title": "INFORME SOBRE LA NECESIDAD Y OBLIGATORIEDAD DE SOLICITAR LA AUTORIZACIÓN O COMUNICACIÓN DE APCA (ACTIVIDADES POTENCIALMENTE CONTAMINADORAS DE LA ATMÓSFERA) PARA LAS INSTALACIONES DE TELEFÉRICO DEL TEIDE (LA OROTAVA, TENERIFE).",
    "municipality": "LA OROTAVA",
    "date": 2023,
    "category": "MEDIOAMBIENTE",
    "LAT": "28°19′10″N",
    "LON": "16°36′04″O",
    "lat": 28.319444444,
    "lon": -16.601111111
  },
  {
    "title": "REDACCIÓN DEL DOCUMENTO AMBIENTAL PARA LA EVALUACIÓN AMBIENTAL ORDINARIA DEL PROYECTO DE CIRCUNVALACIÓN SAN SEBASTIÁN – HOSPITAL – ÁVALOS 2ª FASE. TRAMO: CONEXIÓN GM-1 – VÍA DE ACCCESO A LA LOMADA – LOMO DEL CLAVO/ÁVALOS\". SAN SEBASTIÁN. ISLA DE LA GOMERA”",
    "municipality": "SAN SEBASTIAN ",
    "date": 2023,
    "category": "MEDIOAMBIENTE",
    "LAT": "28°07′07″N",
    "LON": "17°12′53″O",
    "lat": 28.118611111,
    "lon": -17.214722222
  },
  {
    "title": "REDACCIÓN DEL ESTUDIO DE CONTAMINACIÓN DE SUELOS DEL PLAN MAESTRO DEL RECINTO FERIAL DE CANARIAS – INFECAR (LAS PALMAS DE GRAN CANARIA).",
    "municipality": "LAS PALMAS DE GRAN CANARIA",
    "date": 2023,
    "category": "MEDIOAMBIENTE",
    "LAT": "27°58′08″N",
    "LON": "15°35′53″O",
    "lat": 27.968888889,
    "lon": -15.598055556
  },
  {
    "title": "REDACCIÓN DE LA EVALUACIÓN DE IMPACTO ECOLÓGICO Y ESTRATEGIA ECOLÓGICA DEL PLAN MAESTRO DEL RECINTO FERIAL DE CANARIAS – INFECAR (LAS PALMAS DE GRAN CANARIA).",
    "municipality": "LAS PALMAS DE GRAN CANARIA",
    "date": 2023,
    "category": "MEDIOAMBIENTE",
    "LAT": "27°58′16″N",
    "LON": "15°35′46″O",
    "lat": 27.971111111,
    "lon": -15.596111111
  },
  {
    "title": "INFORME DE COMPROBACIÓN DE LA CORRECTA APLICACIÓN DE LAS DISTINTAS MEDIDAS AMBIENTALES PROPUESTAS EN EL PROCEDIMIENTO DE EVALUACIÓN AMBIENTAL ESTRATÉGICA ORDINARIO DE LA MODIFICACIÓN PUNTUAL DEL PLAN GENERAL DE ORDENACIÓN DE GUÍA DE ISORA EN EL SECTOR “CUEVA DEL POLVO” EN EL PROYECTO DE URBANIZACIÓN CUEVA DEL POLVO (GUÍA DE ISORA, TENERIFE).",
    "municipality": "GUIA DE ISORA",
    "date": 2022,
    "category": "MEDIOAMBIENTE",
    "LAT": "28°19′18″N",
    "LON": "16°35′57″O",
    "lat": 28.321666667,
    "lon": -16.599166667
  },
  {
    "title": "REDACCIÓN DEL DOCUMENTO AMBIENTAL PARA LA EVALUACIÓN AMBIENTAL SIMPLIFICADA DEL PROYECTO DE URBANIZACIÓN DEL PROYECTO DE INTERÉS INSULAR IMAGINE GREEN STUDIO (ADEJE, TENERIFE)",
    "municipality": "ADEJE",
    "date": 2022,
    "category": "MEDIOAMBIENTE",
    "LAT": "28°19′25″N",
    "LON": "16°35′50″O",
    "lat": 28.323611111,
    "lon": -16.597222222
  },
  {
    "title": "INFORME DE VALORACIÓN BOTÁNICA Y FAUNÍSTICA DE LA CANTERA DE ESPIGÓN DE LOS RINCONES Y SU ENTORNO (LA OLIVA, FUERTEVENTURA).",
    "municipality": "LA OLIVA",
    "date": 2022,
    "category": "MEDIOAMBIENTE",
    "LAT": "28°20′29″N",
    "LON": "14°00′31″O",
    "lat": 28.341388889,
    "lon": -14.008611111
  },
  {
    "title": "REDACCIÓN DEL INFORME AMBIENTAL DE FINCA LOS FONTE (FRONTERA, EL HIERRO)",
    "municipality": "FRONTERA",
    "date": 2022,
    "category": "MEDIOAMBIENTE",
    "LAT": "28°19′32″N",
    "LON": "16°35′42″O",
    "lat": 28.325555556,
    "lon": -16.595
  },
  {
    "title": "REDACCIÓN DEL ESTUDIO AMBIENTAL DEL COMPLEJO DE TRICAMPA (SAN CRISTÓBAL DE LA LAGUNA, TENERIFE).",
    "municipality": "SAN CRISTOBAL DE LA LAGUNA",
    "date": 2022,
    "category": "MEDIOAMBIENTE",
    "LAT": "28°19′39″N",
    "LON": "16°35′35″O",
    "lat": 28.3275,
    "lon": -16.593055556
  },
  {
    "title": "REDACCIÓN DEL ESTUDIO DE PAISAJE (ANÁLISIS DE VISIBILIDAD) DEL COMPLEJO DE TRICAMPA (SAN CRISTÓBAL DE LA LAGUNA, TENERIFE).",
    "municipality": "SAN CRISTOBAL DE LA LAGUNA",
    "date": 2022,
    "category": "MEDIOAMBIENTE",
    "LAT": "28°19′46″N",
    "LON": "16°35′28″O",
    "lat": 28.329444444,
    "lon": -16.591111111
  },
  {
    "title": "REDACCIÓN DEL INFORME AMBIENTAL PARCELAS INSTALACIÓN PLANTA SOLAR FOTOVOLTAICA ARURE (VALLE GRAN REY, LA GOMERA)",
    "municipality": "VALLE GRAN REY",
    "date": 2022,
    "category": "MEDIOAMBIENTE",
    "LAT": "28°07′14″N",
    "LON": "17°12′46″O",
    "lat": 28.120555556,
    "lon": -17.212777778
  },
  {
    "title": "REDACCIÓN DEL ESTUDIO AMBIENTAL DE LA IMPLANTACIÓN DE UN PROYECTO DE PLANTA DESALADORA DE AGUA DE MAR. PARA RIEGO DE CULTIVOS (600 m3/día) EN LOS SILOS TENERIFE.",
    "municipality": "LOS SILOS",
    "date": 2022,
    "category": "MEDIOAMBIENTE",
    "LAT": "28°19′54″N",
    "LON": "16°35′21″O",
    "lat": 28.331666667,
    "lon": -16.589166667
  },
  {
    "title": "REDACCIÓN DEL INFORME AMBIENTAL INICIAL SOBRE LA IMPLANTACIÓN DE UN PROYECTO DE INTERÉS INSULAR (ADEJE, TENERIFE).",
    "municipality": "ADEJE",
    "date": 2021,
    "category": "MEDIOAMBIENTE",
    "LAT": "28°20′01″N",
    "LON": "16°35′14″O",
    "lat": 28.333611111,
    "lon": -16.587222222
  },
  {
    "title": "REALIZACIÓN DEL ANÁLISIS DE LA VEGETACIÓN DE LOS UNIDADES AMBIENTALES HOMOGÉNEAS DEL SECTOR COSTA CARDÓN EN SANTA CRUZ DE TENERIFE",
    "municipality": "SANTA CRUZ DE TENERIFE",
    "date": 2021,
    "category": "MEDIOAMBIENTE",
    "LAT": "28°20′08″N",
    "LON": "16°35′06″O",
    "lat": 28.335555556,
    "lon": -16.585
  },
  {
    "title": "REDACCIÓN DEL ESTUDIO Y ASESORAMIENTO DE AVIFAUNA EN VARIAS PARCELAS DE ARICO. TENERIFE",
    "municipality": "ARICO",
    "date": 2021,
    "category": "MEDIOAMBIENTE",
    "LAT": "28°20′15″N",
    "LON": "16°34′59″O",
    "lat": 28.3375,
    "lon": -16.583055556
  },
  {
    "title": "REDACCIÓN DEL ESTUDIO Y ASESORAMIENTO DE AVIFAUNA EN EL ÁMBITO DEL PLAN PARCIAL PLAYA BLANCA (YAIZA, LANZAROTE).",
    "municipality": "YAIZA",
    "date": 2021,
    "category": "MEDIOAMBIENTE",
    "LAT": "29°02′20″N",
    "LON": "13°37′44″O",
    "lat": 29.038888889,
    "lon": -13.628888889
  },
  {
    "title": "ELABORACIÓN DEL DOCUMENTO-PROPUESTA DE RESTAURACIÓN DE VEGETACIÓN NATURAL DE LA CANTERA EL CORTIJO. GRAN CANARIA",
    "municipality": "SAN LORENZO",
    "date": 2021,
    "category": "MEDIOAMBIENTE",
    "LAT": "27°58′23″N",
    "LON": "15°35′38″O",
    "lat": 27.973055556,
    "lon": -15.593888889
  },
  {
    "title": "ACTUALIZACIÓN DE ESTUDIO DE IMPACTO AMBIENTAL PARA EL PROYECTO DE MODERNIZACIÓN MEJORA DE REGADÍO EN LA ZONA CENTRO-SUR DE FUERTEVENTURA T.M. DE TUINEJE.",
    "municipality": "TUINEJE",
    "date": 2021,
    "category": "MEDIOAMBIENTE",
    "LAT": "28°20′36″N",
    "LON": "14°00′24″O",
    "lat": 28.343333333,
    "lon": -14.006666667
  },
  {
    "title": "DOCUMENTACIÓN PARA LA SOLICITUD DE AUTORIZACIÓN DE ACTIVIDADES POTENCIALMENTE CONTAMINADORAS (APCA) PARA LA CENTRAL DE FABRICACIÓN DE HORMIGÓN PREMEZCLADO EN ARAFO. TENERIFE",
    "municipality": "ARAFO",
    "date": 2021,
    "category": "MEDIOAMBIENTE",
    "LAT": "28°20′22″N",
    "LON": "16°34′52″O",
    "lat": 28.339444444,
    "lon": -16.581111111
  },
  {
    "title": "DOCUMENTACIÓN PARA LA SOLICITUD DE AUTORIZACIÓN DE ACTIVIDADES POTENCIALMENTE CONTAMINADORAS (APCA) PARA LA CENTRAL DE FABRICACIÓN DE HORMIGÓN PREMEZCLADO EN ADEJE. TENERIFE",
    "municipality": "ADEJE",
    "date": 2021,
    "category": "MEDIOAMBIENTE",
    "LAT": "28°20′30″N",
    "LON": "16°34′45″O",
    "lat": 28.341666667,
    "lon": -16.579166667
  },
  {
    "title": "DOCUMENTACIÓN PARA LA SOLICITUD DE AUTORIZACIÓN DE UNA INSTALACIÓN PARA LA GESTIÓN DE RESIDUOS DE LA CONSTRUCCIÓN (RCD) EN ARCHIPENQUE, ARICO. TENERIFE.",
    "municipality": "ARICO",
    "date": 2021,
    "category": "MEDIOAMBIENTE",
    "LAT": "28°20′37″N",
    "LON": "16°34′38″O",
    "lat": 28.343611111,
    "lon": -16.577222222
  },
  {
    "title": "ACTUALIZACIÓN DEL DOCUMENTO AMBIENTAL PARA LA EVALUACIÓN AMBIENTAL SIMPLIFICADA DEL PROYECTO DE MODERNIZACIÓN Y MEJORA DE LOS REGADÍOS DE LA ZONA NORDESTE DE LANZAROTE.",
    "municipality": "TEGUISE",
    "date": 2021,
    "category": "MEDIOAMBIENTE",
    "LAT": "29°02′28″N",
    "LON": "13°37′37″O",
    "lat": 29.041111111,
    "lon": -13.626944444
  },
  {
    "title": "SOLICITUD DE INICIO DE LA EVALUACIÓN AMBIENTAL SIMPLIFICADA Y DOCUMENTO AMBIENTAL PARA ESTUDIO DE IMPACTO AMBIENTAL SIMPLIFICADO PROYECTO DE INSTALACIÓN DE UN LABORATORIO FARMACEUTICO INDUSTRIAL EN EL PUERTO DE SANTA CRUZ DE TENERIFE (ZONA ZEC).",
    "municipality": "SANTA CRUZ DE TENERIFE",
    "date": 2020,
    "category": "MEDIOAMBIENTE",
    "LAT": "28°20′44″N",
    "LON": "16°34′30″O",
    "lat": 28.345555556,
    "lon": -16.575
  },
  {
    "title": "SOLICITUD DE INICIO DE LA EVALUACIÓN AMBIENTAL SIMPLIFICADA Y DOCUMENTO AMBIENTAL DEL PROYECTO DE INSTALACIÓN DE UN SUMINISTRADOR FÍSICO PARA BUNKERING EN PUERTO DE SANTA CRUZ DE TENERIFE.",
    "municipality": "SANTA CRUZ DE TENERIFE",
    "date": 2020,
    "category": "MEDIOAMBIENTE",
    "LAT": "28°20′51″N",
    "LON": "16°34′23″O",
    "lat": 28.3475,
    "lon": -16.573055556
  },
  {
    "title": "ESTUDIO DE IMPACTO AMBIENTAL SIMPLIFICADA PROYECTO DE REHABILITACIÓN DE VIVIENDA PARA TURISMO RURAL. VILLA DE MAZO, LA PALMA.",
    "municipality": "VILLA DE MAZO",
    "date": 2020,
    "category": "MEDIOAMBIENTE",
    "LAT": "28°40′22″N",
    "LON": "17°51′39″O",
    "lat": 28.672777778,
    "lon": -17.860833333
  },
  {
    "title": "INFORME AMBIENTAL/SOLICITUD DE AUTORIZACIÓN DE ACTIVIDAD POTENCIALMENTE CONTAMINADORA DE LA ATMÓSFERA DEL HORNO CREMATORIO EN SAN SEBASTIÁN DE LA GOMERA",
    "municipality": "SAN SEBASTIAN ",
    "date": 2020,
    "category": "MEDIOAMBIENTE",
    "LAT": "28°07′22″N",
    "LON": "17°12′38″O",
    "lat": 28.122777778,
    "lon": -17.210555556
  },
  {
    "title": "INFORME BOTÁNICO ESPECÍFICO DE LA CETERACH AUREUM (DORADILLA), GEORREFERENCIACIÓN DE EJEMPLARES Y DEFINICIÓN DE MEDIDAS A DESARROLLAR PARA SU PROTECCIÓN Y CONTINUIDAD.",
    "municipality": "SANTA CRUZ DE TENERIFE",
    "date": 2020,
    "category": "MEDIOAMBIENTE",
    "LAT": "28°20′58″N",
    "LON": "16°34′16″O",
    "lat": 28.349444444,
    "lon": -16.571111111
  },
  {
    "title": "EVALUACIÓN AMBIENTAL SIMPLIFICADA DEL PROYECTO REDUCCIÓN DEL RIESGO DE DESPRENDIMIENTOS SOBRE LAS INSTALACIONES DEL TELEFÉRICO DEL TEIDE.",
    "municipality": "LA OROTAVA",
    "date": 2020,
    "category": "MEDIOAMBIENTE",
    "LAT": "28°21′06″N",
    "LON": "16°34′09″O",
    "lat": 28.351666667,
    "lon": -16.569166667
  },
  {
    "title": "ESTUDIO Y ASESORAMIENTO DE AVIFAUNA EN PUNTA DE ABONA (ARICO-TENERIFE).",
    "municipality": "ARICO",
    "date": 2020,
    "category": "MEDIOAMBIENTE",
    "LAT": "28°21′13″N",
    "LON": "16°34′02″O",
    "lat": 28.353611111,
    "lon": -16.567222222
  },
  {
    "title": "ESTUDIO DE DETECCIÓN DE PIMELIA CANARIENSIS EN PUNTA DE ABONA (ARICO- TENERIFE).",
    "municipality": "ARICO",
    "date": 2020,
    "category": "MEDIOAMBIENTE",
    "LAT": "28°21′20″N",
    "LON": "16°33′54″O",
    "lat": 28.355555556,
    "lon": -16.565
  },
  {
    "title": "REDACCIÓN DE ESTUDIO DE IMPACTO AMBIENTAL ORDINARIA DEL PROYECTO DE PARQUE SAN JUAN. 4,7 MW (ARICO-TENERIFE)",
    "municipality": "ARICO",
    "date": 2019,
    "category": "MEDIOAMBIENTE",
    "LAT": "28°21′27″N",
    "LON": "16°33′47″O",
    "lat": 28.3575,
    "lon": -16.563055556
  },
  {
    "title": "ESTUDIO DE FLORA Y FAUNA EN LA ZONA DE EL PALM-MAR, ARONA. INCLUYENDO INVENTARIO DE PIMELIA CANARIENSIS (ESPECIE EN PELIGRO DE EXTINCIÓN)",
    "municipality": "ARONA",
    "date": 2019,
    "category": "MEDIOAMBIENTE",
    "LAT": "28°21′34″N",
    "LON": "16°33′40″O",
    "lat": 28.359444444,
    "lon": -16.561111111
  },
  {
    "title": "ESTUDIO INICIAL PREVIO PARA EL DISEÑO DE UNA PROGRAMA DE CARRETERAS PAISAJÍSTICAS EN LA ISLA DE TENERIFE",
    "municipality": "SANTA CRUZ DE TENERIFE",
    "date": 2018,
    "category": "MEDIOAMBIENTE",
    "LAT": "28°21′42″N",
    "LON": "16°33′33″O",
    "lat": 28.361666667,
    "lon": -16.559166667
  },
  {
    "title": "INFORME DE SEGUIMIENTO DE COLISIONES DE AVES Y QUIRÓPTEROS EN EL PARQUE EÓLICO TAGORO-RISCO BLANCO EN ARICO, TENERIFE” DESDE FINALES 2017. SIGUIENDO LAS DETERMINACIONES MARCADAS POR LOS CONDICIONANTES MEDIOAMBIENTALES DEL PROYECTO PARQUE EÓLICO “TAGORO RISCO BLANCO”, CONTENIDO EN EL ANEXO II DEL DECRETO 383/2015, DE 28 DE DICIEMBRE, POR EL QUE SE EXCLUYE A DETERMINADOS PROYECTOS DE PARQUES EÓLICOS DEL PROCEDIMIENTO DE EVALUACIÓN DEL IMPACTO AMBIENTAL (BOC Nº 253, DE JUEVES 31 DE DICIEMBRE DE 2015).",
    "municipality": "ARICO",
    "date": 2018,
    "category": "MEDIOAMBIENTE",
    "LAT": "28°21′49″N",
    "LON": "16°33′26″O",
    "lat": 28.363611111,
    "lon": -16.557222222
  },
  {
    "title": "REDACCIÓN DE ESTUDIO DE IMPACTO AMBIENTAL DEL PROYECTO DE PARQUE EÓLICO ABADES 1 (8 MW). ARICO. TENERIFE",
    "municipality": "ARICO",
    "date": 2018,
    "category": "MEDIOAMBIENTE",
    "LAT": "28°21′56″N",
    "LON": "16°33′18″O",
    "lat": 28.365555556,
    "lon": -16.555
  },
  {
    "title": "REDACCIÓN DE ESTUDIO DE IMPACTO AMBIENTAL DEL PROYECTO DE PARQUE EÓLICO ABADES 2 (10,35 MW). ARICO. TENERIFE",
    "municipality": "ARICO",
    "date": 2018,
    "category": "MEDIOAMBIENTE",
    "LAT": "28°22′03″N",
    "LON": "16°33′11″O",
    "lat": 28.3675,
    "lon": -16.553055556
  },
  {
    "title": "REDACCIÓN INFORME BOTÁNICO ESPECÍFICO DE LA CETERACH AUREUM (DORADILLA), GEORREFERENCIANDO EJEMPLARES EXISTENTES Y DEFINIENDO LAS MEDIDAS A DESARROLLAR PARA SU PROTECCIÓN Y CONTINUIDAD. ENTORNO DE CANTERA MONTES DE LUNA. VILLA DE MAZO. LA PALMA.",
    "municipality": "VILLA DE MAZO",
    "date": 2017,
    "category": "MEDIOAMBIENTE",
    "LAT": "28°40′29″N",
    "LON": "17°51′31″O",
    "lat": 28.674722222,
    "lon": -17.858611111
  },
  {
    "title": "DOCUMENTO DE EVALUACIÓN DE IMPACTO AMBIENTAL DEL PROYECTO DE URBANIZACIÓN CUEVA DEL POVO. GUÍA DE ISORA. TENERIFE",
    "municipality": "GUIA DE ISORA",
    "date": 2017,
    "category": "MEDIOAMBIENTE",
    "LAT": "28°22′10″N",
    "LON": "16°33′04″O",
    "lat": 28.369444444,
    "lon": -16.551111111
  },
  {
    "title": "REDACCIÓN DEL PROYECTO DE INSTALACIÓN DE UN GRUPO MÓVIL DE TRATAMIENTO DE ÁRIDOS PARA EL PROYECTO DE URBANIZACIÓN “SECTOR COSTA SAN JUAN”",
    "municipality": "GUIA DE ISORA",
    "date": 2017,
    "category": "MEDIOAMBIENTE",
    "LAT": "28°22′18″N",
    "LON": "16°32′57″O",
    "lat": 28.371666667,
    "lon": -16.549166667
  },
  {
    "title": "ESTUDIO DE VEGETACIÓN Y FAUNA. ÁMBITO CUEVA DEL POLVO. GUÍA DE ISORA. TENERIFE",
    "municipality": "GUIA DE ISORA",
    "date": 2017,
    "category": "MEDIOAMBIENTE",
    "LAT": "28°22′25″N",
    "LON": "16°32′50″O",
    "lat": 28.373611111,
    "lon": -16.547222222
  },
  {
    "title": "INVENTARIO AMBIENTAL PARA FINCA LA ESTRELLA, POLÍGONO 4, PARCELA 273 (SAN MIGUEL DE ABONA, TENERIFE).",
    "municipality": "SAN MIGUEL DE ABONA",
    "date": 2017,
    "category": "MEDIOAMBIENTE",
    "LAT": "28°22′32″N",
    "LON": "16°32′42″O",
    "lat": 28.375555556,
    "lon": -16.545
  },
  {
    "title": "REDACCIÓN DE ESTUDIO DE IMPACTO AMBIENTAL ORDINARIA DEL PROYECTO DE PARQUE EÓLICO BRISAS DEL MAR. 4,7 MW (ARICO-TENERIFE)",
    "municipality": "ARICO",
    "date": 2017,
    "category": "MEDIOAMBIENTE",
    "LAT": "28°22′39″N",
    "LON": "16°32′35″O",
    "lat": 28.3775,
    "lon": -16.543055556
  },
  {
    "title": "ANTEPROYECTO DE RECUPERACIÓN AMBIENTAL Y PAISAJÍSTICA DE PUNTA DE ABONA DENTRO DEL ANTEPROYECTO DE REGENERACIÓN AMBIENTAL-PAISAJÍSTICA Y DESARROLLO TURÍSTICO. PUNTA DE ABONA. ARICO. TENERIFE (En tramitación)",
    "municipality": "ARICO",
    "date": 2017,
    "category": "MEDIOAMBIENTE",
    "LAT": "28°22′46″N",
    "LON": "16°32′28″O",
    "lat": 28.379444444,
    "lon": -16.541111111
  },
  {
    "title": "ESTUDIO DE LOS MOVIMIENTOS DE TIERRA. PUNTA DE ABONA - ARICO. TENERIFE",
    "municipality": "ARICO",
    "date": 2017,
    "category": "MEDIOAMBIENTE",
    "LAT": "28°22′54″N",
    "LON": "16°32′21″O",
    "lat": 28.381666667,
    "lon": -16.539166667
  },
  {
    "title": "ESTUDIO DE LA VEGETACIÓN Y LA FAUNA EN PUNTA DE ABONA-ARICO, TENERIFE",
    "municipality": "ARICO",
    "date": 2017,
    "category": "MEDIOAMBIENTE",
    "LAT": "28°23′01″N",
    "LON": "16°32′14″O",
    "lat": 28.383611111,
    "lon": -16.537222222
  },
  {
    "title": "ESTUDIO DEL ORIGEN Y DINÁMICA DE LOS SEDIMENTOS DE LAS PLAYAS Y DUNAS DE LA PUNTA DE ABONA-ARICO, TENERIFE",
    "municipality": "ARICO",
    "date": 2017,
    "category": "MEDIOAMBIENTE",
    "LAT": "28°23′08″N",
    "LON": "16°32′06″O",
    "lat": 28.385555556,
    "lon": -16.535
  },
  {
    "title": "ESTUDIO AMBIENTAL PUNTA LA TOSCA – ARICO, TENERIFE.",
    "municipality": "ARICO",
    "date": 2017,
    "category": "MEDIOAMBIENTE",
    "LAT": "28°23′15″N",
    "LON": "16°31′59″O",
    "lat": 28.3875,
    "lon": -16.533055556
  },
  {
    "title": "PROYECTO DE RESTAURACIÓN AMBIENTAL Y PROGRAMA DE VIGILANCIA AMBIENTAL DEL PROYECTO PARQUE EÓLICO TAGORO-RISCO BLANCO (ARICO-TENERIFE) EXCLUIDO DE EVALUACIÓN AMBIENTAL POR EL DECRETO 383/2015, DE 28 DE DICIEMBRE, POR EL QUE SE EXCLUYEN A DETERMINADOS PORYECTOS DE PARQUES EÓLICOS DEL PROCEDIMIENTO DE EVALUACIÓN DE IMPACTO AMBIENTAL.",
    "municipality": "ARICO",
    "date": 2016,
    "category": "MEDIOAMBIENTE",
    "LAT": "28°23′22″N",
    "LON": "16°31′52″O",
    "lat": 28.389444444,
    "lon": -16.531111111
  },
  {
    "title": "REDACCIÓN DEL ESTUDIO DE IMPACTO AMBIENTAL SIMPLIFICADO (DOCUMENTO AMBIENTAL) DEL PROYECTO DE URBANIZACIÓN EL YUGO (LA LAGUNA – TENERIFE)",
    "municipality": "SAN CRISTOBAL DE LA LAGUNA",
    "date": 2016,
    "category": "MEDIOAMBIENTE",
    "LAT": "28°23′30″N",
    "LON": "16°31′45″O",
    "lat": 28.391666667,
    "lon": -16.529166667
  },
  {
    "title": "IDENTIFICACIÓN Y CONTEO DE LAS ESPECIES EUPHORBIA BALSAMÍFERA, EUPHORBIA CANARIENSIS Y CEROPEGIA DICHOTOMA EN LA LADERA SUR DE MONTAÑA LA ALDEA (SAN MIGUEL DE ABONA - TENERIFE)",
    "municipality": "SAN MIGUEL DE ABONA",
    "date": 2016,
    "category": "MEDIOAMBIENTE",
    "LAT": "28°23′37″N",
    "LON": "16°31′38″O",
    "lat": 28.393611111,
    "lon": -16.527222222
  },
  {
    "title": "REDACCIÓN DEL ESTUDIO DE IMPACTO AMBIENTAL SIMPLIFICADO (DOCUMENTO AMBIENTAL) DEL PROYECTO DE URBANIZACIÓN TRAMO DE CALLE (LA LAGUNA – TENERIFE)",
    "municipality": "SAN CRISTOBAL DE LA LAGUNA",
    "date": 2016,
    "category": "MEDIOAMBIENTE",
    "LAT": "28°23′44″N",
    "LON": "16°31′30″O",
    "lat": 28.395555556,
    "lon": -16.525
  },
  {
    "title": "REDACCIÓN DE EVALUACIÓN DE IMPACTO AMBIENTAL ORDINARIA DEL PROYECTO DE PARQUE EÓLICO LA COLINA (ARICO-TENERIFE)",
    "municipality": "ARICO",
    "date": 2016,
    "category": "MEDIOAMBIENTE",
    "LAT": "28°23′51″N",
    "LON": "16°31′23″O",
    "lat": 28.3975,
    "lon": -16.523055556
  },
  {
    "title": "INVENTARIO DE FLORA Y FAUNA EN PARCELAS DEL SUR DE TENERIFE (ADEJE)",
    "municipality": "ADEJE",
    "date": 2016,
    "category": "MEDIOAMBIENTE",
    "LAT": "28°23′58″N",
    "LON": "16°31′16″O",
    "lat": 28.399444444,
    "lon": -16.521111111
  },
  {
    "title": "REDACCIÓN DEL ESTUDIO DE IMPACTO AMBIENTAL ORDINARIO DEL PROYECTO DE URBANIZACIÓN COSTA SAN JUAN (GUÍA DE ISORA – TENERIFE)",
    "municipality": "GUIA DE ISORA",
    "date": 2016,
    "category": "MEDIOAMBIENTE",
    "LAT": "28°24′06″N",
    "LON": "16°31′09″O",
    "lat": 28.401666667,
    "lon": -16.519166667
  },
  {
    "title": "REDACCIÓN DEL DOCUMENTO AMBIENTAL PARA LA SOLICITUD DE INICIO DE LA EVALUACIÓN DE IMPACTO AMBIENTAL SIMPLIFICADA DEL PROYECTO DE URBANIZACIÓN CENTRO VALLE (LA OROTAVA - TENERIFE)",
    "municipality": "LA OROTAVA",
    "date": 2015,
    "category": "MEDIOAMBIENTE",
    "LAT": "28°24′13″N",
    "LON": "16°31′02″O",
    "lat": 28.403611111,
    "lon": -16.517222222
  },
  {
    "title": "REDACCIÓN DEL ESTUDIO DE IMPACTO AMBIENTAL DEL PROYECTO DE IMPLANTACIÓN DEL PARQUE EÓLICO BRISAS 7 DE 7,05 MW (ARICO-TENERIFE).",
    "municipality": "ARICO",
    "date": 2015,
    "category": "MEDIOAMBIENTE",
    "LAT": "28°24′20″N",
    "LON": "16°30′54″O",
    "lat": 28.405555556,
    "lon": -16.515
  },
  {
    "title": "INFORME-INVENTARIO DE ESPECIES Y HÁBITATS EN EL ÁMBITO TERRITORIAL AFECTADO POR EL PROYECTO DE URBANIZACIÓN LERCARO.",
    "municipality": "LA OROTAVA",
    "date": 2015,
    "category": "MEDIOAMBIENTE",
    "LAT": "28°24′27″N",
    "LON": "16°30′47″O",
    "lat": 28.4075,
    "lon": -16.513055556
  },
  {
    "title": "INFORME GEOMORFOLÓGICO Y VOLCANO-ESTRUCTURAL DEL ACANTILADO DE LA QUINTA (SANTA ÚRSULA - TENERIFE) PARA LA VALORACIÓN AMBIENTAL DE UN POZO DE VERTIDO REALIZADO POR LA EMPRESA SONDEOS CANARIOS S.L.",
    "municipality": "SANTA URSULA",
    "date": 2015,
    "category": "MEDIOAMBIENTE",
    "LAT": "28°24′34″N",
    "LON": "16°30′40″O",
    "lat": 28.409444444,
    "lon": -16.511111111
  },
  {
    "title": "PROYECTO DE DESMONTAJE Y EMBALAJE DE LA PLANTA DE AGLOMERADO ASFÁLTICO EN LA PLAZA DE CANTERA DE LA EXPLOTACIÓN “MONTES DE LUNA”, VILLA DE MAZO, LA PALMA.",
    "municipality": "VILLA DE MAZO",
    "date": 2014,
    "category": "MEDIOAMBIENTE",
    "LAT": "28°40′36″N",
    "LON": "17°51′24″O",
    "lat": 28.676666667,
    "lon": -17.856666667
  },
  {
    "title": "EVALUACIÓN BÁSICA DE IMPACTO ECOLÓGICO PROYECTO DE DEMOLICIÓN Y REPOSICIÓN DE ESCALINATA DE ACCESO A PLAYA MARTÍNEZ ALONSO – LA OROTAVA (TENERIFE).",
    "municipality": "LA OROTAVA",
    "date": 2014,
    "category": "MEDIOAMBIENTE",
    "LAT": "28°24′42″N",
    "LON": "16°30′33″O",
    "lat": 28.411666667,
    "lon": -16.509166667
  },
  {
    "title": "INVENTARIO Y DIAGNÓSTICO AMBIENTAL DEL CASCO HISTÓRICO DE TEGUISE (LANZAROTE) PARA REDACCIÓN DEL PLAN ESPECIAL de PROTECCIÓN.",
    "municipality": "TEGUISE",
    "date": 2014,
    "category": "MEDIOAMBIENTE",
    "LAT": "29°02′35″N",
    "LON": "13°37′30″O",
    "lat": 29.043055556,
    "lon": -13.625
  },
  {
    "title": "INVENTARIO Y DIAGNÓSTICO AMBIENTAL DE LA OROTAVA (TENERIFE) PARA EL PLAN GENERAL DE ORDENACIÓN",
    "municipality": "LA OROTAVA",
    "date": 2013,
    "category": "MEDIOAMBIENTE",
    "LAT": "28°24′49″N",
    "LON": "16°30′26″O",
    "lat": 28.413611111,
    "lon": -16.507222222
  },
  {
    "title": "ESTUDIO DE CUENCAS VISUALES E INTEGRACIÓN PAISAJÍSTICA de CINCO PROYECTOS DE INSTALACIÓN DE PLANTAS FOTOVOLTAICAS EN ARICO. TENERIFE.",
    "municipality": "ARICO",
    "date": 2013,
    "category": "MEDIOAMBIENTE",
    "LAT": "28°24′56″N",
    "LON": "16°30′18″O",
    "lat": 28.415555556,
    "lon": -16.505
  },
  {
    "title": "INVENTARIO Y DIAGNÓSTICO AMBIENTAL DE ICOD DE LOS VINOS (TENERIFE) PARA EL PLAN GENERAL DE ORDENACIÓN",
    "municipality": "ICOD DE LOS VINOS",
    "date": 2013,
    "category": "MEDIOAMBIENTE",
    "LAT": "28°25′03″N",
    "LON": "16°30′11″O",
    "lat": 28.4175,
    "lon": -16.503055556
  },
  {
    "title": "INVENTARIO Y DIAGNÓSTICO AMBIENTAL DE SANTIAGO DEL TEIDE (TENERIFE) PARA EL PLAN GENERAL DE ORDENACIÓN",
    "municipality": "SANTIAGO DEL TEIDE",
    "date": 2013,
    "category": "MEDIOAMBIENTE",
    "LAT": "28°25′10″N",
    "LON": "16°30′04″O",
    "lat": 28.419444444,
    "lon": -16.501111111
  },
  {
    "title": "ESTUDIO AMBIENTAL INICIAL LAS CRESPAS, BARLOVENTO (LA PALMA)",
    "municipality": "BARLOVENTO",
    "date": 2009,
    "category": "MEDIOAMBIENTE",
    "LAT": "28°40′43″N",
    "LON": "17°51′17″O",
    "lat": 28.678611111,
    "lon": -17.854722222
  },
  {
    "title": "ESTUDIO AMBIENTAL OBRAS DE LIMPIEZA DE CAUCE, BARRANCO DE FRANCESES (LA PALMA)",
    "municipality": "GARAFIA",
    "date": 2008,
    "category": "MEDIOAMBIENTE",
    "LAT": "28°40′51″N",
    "LON": "17°51′10″O",
    "lat": 28.680833333,
    "lon": -17.852777778
  },
  {
    "title": "ESTUDIO BÁSICO DE IMPACTO DE CINCO PROYECTOS DE INSTALACIÓN DE PLANTAS FOTOVOLTAICAS EN ARICO.",
    "municipality": "ARICO",
    "date": 2008,
    "category": "MEDIOAMBIENTE",
    "LAT": "28°25′18″N",
    "LON": "16°29′57″O",
    "lat": 28.421666667,
    "lon": -16.499166667
  },
  {
    "title": "ESTUDIO AMBIENTAL PREVIO PARA LA IMPLANTACIÓN DE UN HOTEL Y UN JARDÍN BOTÁNICO EN EL ÁMBITO DE MARTÍN LUÍS (PUNTALLANA-LA PALMA)",
    "municipality": "PUNTALLANA",
    "date": 2008,
    "category": "MEDIOAMBIENTE",
    "LAT": "28°40′58″N",
    "LON": "17°51′03″O",
    "lat": 28.682777778,
    "lon": -17.850833333
  },
  {
    "title": "ESTUDIO BÁSICO DE IMPACTO ECOLÓGICO DE UNA PLANTA FOTOVOLTAICA. MARZAGA (ARICO.TENERIFE)",
    "municipality": "ARICO",
    "date": 2007,
    "category": "MEDIOAMBIENTE",
    "LAT": "28°25′25″N",
    "LON": "16°29′50″O",
    "lat": 28.423611111,
    "lon": -16.497222222
  },
  {
    "title": "ESTUDIO ADICIONAL AL ESTUDIO DE IMPACTO AMBIENTAL DEL MODIFICADO CON VARIANTE DEL TRAZADO ENTRE LOS P.K. 7+060 AL 13+400 DE LA NUEVA CARRETERA SANTIAGO DEL TEIDE-GUÍA DE ISORA-ADEJE.",
    "municipality": "SANTIAGO DEL TEIDE",
    "date": 2005,
    "category": "MEDIOAMBIENTE",
    "LAT": "28°25′32″N",
    "LON": "16°29′42″O",
    "lat": 28.425555556,
    "lon": -16.495
  },
  {
    "title": "ESTUDIO ADICIONAL A LA EVALUACIÓN DE IMPACTO AMBIENTAL DE LA NUEVA CARRETERA ICOD DE LOS VINOS-SANTIAGO DEL TEIDE (TENERIFE): TRAMO ICOD DE LOS VINOS-EL TANQUE.",
    "municipality": "SANTIAGO DEL TEIDE",
    "date": 2005,
    "category": "MEDIOAMBIENTE",
    "LAT": "28°25′39″N",
    "LON": "16°29′35″O",
    "lat": 28.4275,
    "lon": -16.493055556
  },
  {
    "title": "ESTUDIO DE IMPACTO AMBIENTAL DEL MODIFICADO CON VARIANTE DEL TRAZADO DE LA NUEVA CARRETERA SANTIAGO DEL TEIDE-GUÍA DE ISORA-ADEJE (TENERIFE).",
    "municipality": "SANTIAGO DEL TEIDE",
    "date": 2005,
    "category": "MEDIOAMBIENTE",
    "LAT": "28°25′46″N",
    "LON": "16°29′28″O",
    "lat": 28.429444444,
    "lon": -16.491111111
  },
  {
    "title": "REVISIÓN DEL PLAN DE ORDENACIÓN DE RECURSOS NATURALES (PORN) EN LOS ÁMBITOS DE REFERENCIA TURÍSTICOS DE LA ISLA DE TENERIFE MARCADOS POR EL PLAN INSULAR DE ORDENACIÓN DE TENERIFE (PIOT).",
    "municipality": "SANTA CRUZ DE TENERIFE",
    "date": 2003,
    "category": "MEDIOAMBIENTE",
    "LAT": "28°25′54″N",
    "LON": "16°29′21″O",
    "lat": 28.431666667,
    "lon": -16.489166667
  },
  {
    "title": "ESTUDIO BÁSICO DE IMPACTO AMBIENTAL DE UN DEPÓSITO REGULADOR PARA RIEGO EN FÁTIMA (PUNTAGORDA, LA PALMA).",
    "municipality": "PUNTAGORDA",
    "date": 2003,
    "category": "MEDIOAMBIENTE",
    "LAT": "28°41′05″N",
    "LON": "17°50′55″O",
    "lat": 28.684722222,
    "lon": -17.848611111
  },
  {
    "title": "ELABORACIÓN DE LA METODOLOGÍA PARA EL PREDIAGNÓSTICO MEDIOAMBIENTAL DE LAS ÁREAS URBANAS TURÍSTICAS DE LA ISLA DE TENERIFE.",
    "municipality": "ADEJE",
    "date": 2002,
    "category": "MEDIOAMBIENTE",
    "LAT": "28°26′01″N",
    "LON": "16°29′14″O",
    "lat": 28.433611111,
    "lon": -16.487222222
  },
  {
    "title": "ELABORACIÓN DE UN MODELO DE INFORME DE EVALUACIÓN DE IMPACTO AMBIENTAL DE LAS BALSAS DE TENERIFE.",
    "municipality": "SANTA CRUZ DE TENERIFE",
    "date": 2001,
    "category": "MEDIOAMBIENTE",
    "LAT": "28°26′08″N",
    "LON": "16°29′06″O",
    "lat": 28.435555556,
    "lon": -16.485
  },
  {
    "title": "MONTAÑA DEL ARCO (Puntagorda, La Palma)",
    "municipality": "PUNTAGORDA",
    "date": 2001,
    "category": "MEDIOAMBIENTE",
    "LAT": "28°41′12″N",
    "LON": "17°50′48″O",
    "lat": 28.686666667,
    "lon": -17.846666667
  },
  {
    "title": "EVALUACIÓN AMBIENTAL ESTRATÉGICA DEL PROYECTO DE INTERÉS INSULAR PARQUE REGENERATIVO UNDERWATER GARDENS PARK (GUÍA DE ISORA, TENERIFE)",
    "municipality": "GUIA DE ISORA",
    "date": "EN REDACCION",
    "category": "ORDENACION DEL TERRITORIO",
    "LAT": "28°26′15″N",
    "LON": "16°28′59″O",
    "lat": 28.4375,
    "lon": -16.483055556
  },
  {
    "title": "EVALUACIÓN AMBIENTAL ESTRATÉGICA ORDINARIA DE LA MODIFICACIÓN MENOR DEL PLAN INSULAR DE ORDENACIÓN DE LA PALMA EN EL ÁREA DE ACTIVIDAD ECONÓMICA DE RECTA PADRÓN-PARAJE DE FÁTIMA",
    "municipality": "LOS LLANOS DE ARIDANE",
    "date": "EN REDACCION",
    "category": "ORDENACION DEL TERRITORIO",
    "LAT": "28°41′19″N",
    "LON": "17°50′41″O",
    "lat": 28.688611111,
    "lon": -17.844722222
  },
  {
    "title": "EVALUACIÓN AMBIENTAL ESTRATÉGICA ORDINARIA DE LA MODIFICACIÓN SUSTANCIAL DEL PLAN GENERAL DE ORDENACIÓN DE TELDE EN LA ZONA EL HORNILLO",
    "municipality": "AGAETE",
    "date": "EN REDACCION",
    "category": "ORDENACION DEL TERRITORIO",
    "LAT": "28°26′22″N",
    "LON": "16°28′52″O",
    "lat": 28.439444444,
    "lon": -16.481111111
  },
  {
    "title": "EVALUACIÓN AMBIENTAL ESTRATÉGICA SIMPLIFICADA DE LA MODIFICACIÓN MENOR DEL PLAN GENERAL DE ORDENACIÓN DE PUERTO DEL ROSARIO EN EL SECTOR SUNOR LA MOLINA (FUERTEVENTURA)",
    "municipality": "PUERTO DEL ROSARIO",
    "date": "EN REDACCION",
    "category": "ORDENACION DEL TERRITORIO",
    "LAT": "28°20′43″N",
    "LON": "14°00′17″O",
    "lat": 28.345277778,
    "lon": -14.004722222
  },
  {
    "title": "EVALUACIÓN AMBIENTAL ESTRATÉGICA ORDINARIA DE LA ORDENANZA PROVISIONAL INSULAR PARA FIJAR CRITERIOS DE HOMOGENIZACIÓN PARA LA IMPLANTACIÓN DE CAMPINGS Y ÁREAS RESERVADAS A AUTOCARAVANAS, CARAVANAS Y CAMPERS EN SUELO RÚSTICO DE LANZAROTE",
    "municipality": "ARRECIFE",
    "date": "EN REDACCION",
    "category": "ORDENACION DEL TERRITORIO",
    "LAT": "29°02′42″N",
    "LON": "13°37′23″O",
    "lat": 29.045,
    "lon": -13.623055556
  },
  {
    "title": "REDACCIÓN DE LA EVALUACIÓN AMBIENTAL ESTRATÉGICA ORDINARIA Y APOYO TÉCNICO PARA LA MODIFICACIÓN DEL PLAN GENERAL DE ORDENACIÓN URBANA DE SANTA CRUZ DE TENERIFE (PGOU-05) PARA INCORPORAR A LA ORDENACIÓN LA VÍA DE CIRCUNVALACIÓN NORTE DEL PLAN TERRITORIAL ESPECIAL DE ORDENACIÓN DEL SISTEMA VIARIO DEL ÁREA METROPOLITANA DE TENERIFE (PTEOSVAM), CONCILIANDO SU TRAZADO CON LA ORDENACIÓN PREESTABLECIDA.",
    "municipality": "SANTA CRUZ DE TENERIFE",
    "date": "EN REDACCION",
    "category": "ORDENACION DEL TERRITORIO",
    "LAT": "28°26′30″N",
    "LON": "16°28′45″O",
    "lat": 28.441666667,
    "lon": -16.479166667
  },
  {
    "title": "APOYO TÉCNICO Y ASESORAMIENTO EN LA REDACCIÓN DE LA EVALUACIÓN AMBIENTAL ESTRATÉGICA SIMPLIFICADA DE LA ORDENANZA PROVISIONAL INSULAR DE ENERGÍAS RENOVABLES DE LA ISLA DE LANZAROTE",
    "municipality": "ARRECIFE",
    "date": "EN REDACCION",
    "category": "ORDENACION DEL TERRITORIO",
    "LAT": "29°02′49″N",
    "LON": "13°37′16″O",
    "lat": 29.046944444,
    "lon": -13.621111111
  },
  {
    "title": "REDACCIÓN DE LA EVALUACIÓN AMBIENTAL ESTRATÉGICA MODIFICACIÓN MENOR DEL PLAN GENERAL DE ORDENACIÓN URBANA DE SANTA CRUZ DE TENERIFE (PGOU-05) EN EL “ÁMBITO DE ACTUACIÓN MUNICIPAL A, LITORAL DE ANAGA, LA-6, ÁREA LAS TERESITAS”.",
    "municipality": "SANTA CRUZ DE TENERIFE",
    "date": "EN REDACCION",
    "category": "ORDENACION DEL TERRITORIO",
    "LAT": "28°26′37″N",
    "LON": "16°28′38″O",
    "lat": 28.443611111,
    "lon": -16.477222222
  },
  {
    "title": "REDACCIÓN DEL DOCUMENTO AMBIENTAL ESTRATÉGICO PARA LA EVALUACIÓN SIMPLIFICADA DEL PLAN PARCIAL DEL SECTOR DE SUELO URBANIZABLE NO ORDENADO SN-1 (ADEJE, TENERIFE)",
    "municipality": "ADEJE",
    "date": 2025,
    "category": "ORDENACION DEL TERRITORIO",
    "LAT": "28°26′44″N",
    "LON": "16°28′30″O",
    "lat": 28.445555556,
    "lon": -16.475
  },
  {
    "title": "DOCUMENTO AMBIENTAL PARA LA EVALUACIÓN AMBIENTAL ESTRATÉGICA SIMPLIFICADA DE LA MODIFICACIÓN MENOR DEL PLAN GENERAL DE ORDENACIÓN DE SAN CRISTÓBAL DE LA LAGUNA EN LA UNIDAD DE ACTUACIÓN LC-20 LA CUESTA (TENERIFE).",
    "municipality": "SAN CRISTOBAL DE LA LAGUNA",
    "date": 2024,
    "category": "ORDENACION DEL TERRITORIO",
    "LAT": "28°26′51″N",
    "LON": "16°28′23″O",
    "lat": 28.4475,
    "lon": -16.473055556
  },
  {
    "title": "DOCUMENTO AMBIENTAL PARA LA EVALUACIÓN AMBIENTAL ESTRATÉGICA SIMPLIFICADA DE LA MODIFICACIÓN MENOR DEL PLAN GENERAL DE ORDENACIÓN DE GRANADILLA DE ABONA PARA LA LOCALIZACIÓN DE UN EQUIPAMIENTO DEPORTIVO SINGULAR (TENERIFE)",
    "municipality": "GRANADILLA DE ABONA",
    "date": 2024,
    "category": "ORDENACION DEL TERRITORIO",
    "LAT": "28°26′58″N",
    "LON": "16°28′16″O",
    "lat": 28.449444444,
    "lon": -16.471111111
  },
  {
    "title": "DOCUMENTO AMBIENTAL PARA LA EVALUACIÓN AMBIENTAL ESTRATÉGICA SIMPLIFICADA DE LA MODIFICACIÓN MENOR DE LAS NORMAS SUBSIDIARIAS DE ARICO. PARCELA EN CALLE LA MORRA, 1 (PORIS DE ABONA, ARICO, TENERIFE)",
    "municipality": "ARICO",
    "date": 2024,
    "category": "ORDENACION DEL TERRITORIO",
    "LAT": "28°27′06″N",
    "LON": "16°28′09″O",
    "lat": 28.451666667,
    "lon": -16.469166667
  },
  {
    "title": "REDACCIÓN DEL DOCUMENTO INICIAL ESTRATÉGICO PARA LA EVALUACIÓN AMBIENTAL ESTRATÉGICA ORDINARIA DEL PLAN GENERAL DE ORDENACIÓN DEL MOYA (GRAN CANARIA)",
    "municipality": "MOYA",
    "date": 2023,
    "category": "ORDENACION DEL TERRITORIO",
    "LAT": "27°58′30″N",
    "LON": "15°35′31″O",
    "lat": 27.975,
    "lon": -15.591944444
  },
  {
    "title": "REDACCIÓN DEL DOCUMENTO AMBIENTAL PARA LA EVALUACIÓN AMBIENTAL ESTRATÉGICA ORDINARIA DEL PLAN DIRECTOR DE INFRAESTRUCTURAS DEL PUERTO DE SANTA CRUZ DE LA PALMA.",
    "municipality": "SANTA CRUZ DE LA PALMA",
    "date": 2023,
    "category": "ORDENACION DEL TERRITORIO",
    "LAT": "28°41′27″N",
    "LON": "17°50′34″O",
    "lat": 28.690833333,
    "lon": -17.842777778
  },
  {
    "title": "VALORACIÓN DEL CUMPLIMIENTO DE LAS MEDIDAS AMBIENTALES RECOGIDAS EN EL PGO DE GUÍA DE ISORA DEL PROYECTO DE URBANIZACIÓN UNIDAD DE ACTUACIÓN LA CHIQUITA (GUÍA DE ISORA, TENERIFE)",
    "municipality": "GUIA DE ISORA",
    "date": 2023,
    "category": "ORDENACION DEL TERRITORIO",
    "LAT": "28°27′13″N",
    "LON": "16°28′02″O",
    "lat": 28.453611111,
    "lon": -16.467222222
  },
  {
    "title": "REDACCIÓN DEL DOCUMENTO AMBIENTAL ESTRATÉGICO PARA LA EVALUACIÓN AMBIENTAL ESTRATÉGICA SIMPLIFICADA DEL PLAN PARCIAL SUB.S.N.O.-R 1 (LOS REALEJOS, TENERIFE).",
    "municipality": "LOS REALEJOS",
    "date": 2023,
    "category": "ORDENACION DEL TERRITORIO",
    "LAT": "28°27′20″N",
    "LON": "16°27′54″O",
    "lat": 28.455555556,
    "lon": -16.465
  },
  {
    "title": "REDACCIÓN DEL DOCUMENTO INICIAL ESTRATÉGICO PARA LA EVALUACIÓN AMBIENTAL ESTRATÉGICA ORDINARIA DE LA MODIFICACIÓN MENOR DEL PLAN GENERAL DE ORDENACIÓN DE FRONTERA. FINCA LOS FONTES.",
    "municipality": "FRONTERA",
    "date": 2023,
    "category": "ORDENACION DEL TERRITORIO",
    "LAT": "28°27′27″N",
    "LON": "16°27′47″O",
    "lat": 28.4575,
    "lon": -16.463055556
  },
  {
    "title": "REDACCIÓN DEL DOCUMENTO AMBIENTAL ESTRATÉGICO PARA LA EVALUACIÓN AMBIENTAL ESTRATÉGICA SIMPLIFICADA DEL PROYECTO DE INTERÉS INSULAR IMAGINE GREEN STUDIO (ADEJE, TENERIFE).",
    "municipality": "ADEJE",
    "date": 2022,
    "category": "ORDENACION DEL TERRITORIO",
    "LAT": "28°27′34″N",
    "LON": "16°27′40″O",
    "lat": 28.459444444,
    "lon": -16.461111111
  },
  {
    "title": "REDACCIÓN DEL DOCUMENTO INICIAL ESTRATÉGICO PARA LA EVALUACIÓN AMBIENTAL ESTRATÉGICA ORDINARIA DEL PLAN ESPECIAL QUISISANA (ÁREA DE LAS COLINAS DEL PGO-2005) EN SANTA CRUZ DE TENERIFE.",
    "municipality": "SANTA CRUZ DE TENERIFE",
    "date": 2022,
    "category": "ORDENACION DEL TERRITORIO",
    "LAT": "28°27′42″N",
    "LON": "16°27′33″O",
    "lat": 28.461666667,
    "lon": -16.459166667
  },
  {
    "title": "REDACCIÓN DEL PROYECTO DE RESTABLECIMIENTO DE LA LEGALIDAD URBANÍSTICA (RESTAURACIÓN PAISAJÍSTICA) EN LOS SILOS, TENERIFE",
    "municipality": "LOS SILOS",
    "date": 2022,
    "category": "ORDENACION DEL TERRITORIO",
    "LAT": "28°27′49″N",
    "LON": "16°27′26″O",
    "lat": 28.463611111,
    "lon": -16.457222222
  },
  {
    "title": "REDACCIÓN DEL DOCUMENTO AMBIENTAL ESTRATÉGICO PARA LA EVALUACIÓN AMBIENTAL ESTRATÉGICA SIMPLIFICADA DE LA MODIFICACION MENOR DEL PLAN GENERAL DE ORDENACIÓN DE LA ALDEA DE SAN NICOLAS (GRAN CANARIA).",
    "municipality": "ALDEA DE SAN NICOLAS",
    "date": 2022,
    "category": "ORDENACION DEL TERRITORIO",
    "LAT": "27°58′37″N",
    "LON": "15°35′24″O",
    "lat": 27.976944444,
    "lon": -15.59
  },
  {
    "title": "REDACCIÓN DEL DOCUMENTO INICIAL ESTRATÉGICO DE PLAN DIRECTOR DE INFRAESTRUCTURAS DEL CICLO DEL AGUA DE SANTA CRUZ DE TENERIFE.",
    "municipality": "SANTA CRUZ DE TENERIFE",
    "date": 2022,
    "category": "ORDENACION DEL TERRITORIO",
    "LAT": "28°27′56″N",
    "LON": "16°27′18″O",
    "lat": 28.465555556,
    "lon": -16.455
  },
  {
    "title": "REDACCIÓN DEL DOCUMENTO AMBIENTAL ESTRATÉGICO PARA LA EVALUACIÓN AMBIENTAL ESTRATÉGICA SIMPLIFICAD DEL PROYECTO DE INTERÉS INSULAR CENTRO SOCIOSANITARIO EN EL MUNICIPIO DE INGENIO (GRAN CANARIA)",
    "municipality": "INGENIO",
    "date": 2021,
    "category": "ORDENACION DEL TERRITORIO",
    "LAT": "27°58′44″N",
    "LON": "15°35′17″O",
    "lat": 27.978888889,
    "lon": -15.588055556
  },
  {
    "title": "REDACCIÓN DEL DOCUMENTO DE JUSTIFICACIÓN TÉCNICA DE QUE NO SE HAN PRODUCIDO CAMBIOS SUSTANCIALES EN LOS ELEMENTOS ESENCIALES QUE SIRVIERON DE BASE PARA REALIZAR LA EVALUACIÓN AMBIENTAL ESTRATÉGICA DEL PLAN GENERAL DE ORDENACIÓN DE ICOD DE LOS VINOS, DANDO CUMPLIMIENTO A LA DISPOSICIÓN TRANSITORIA SÉPTIMA EVALUACIÓN AMBIENTAL DE INSTRUMENTOS DE ORDENACIÓN EN TRÁMITE, DE LA LEY 4/2017, DE 13 DE JULIO, DEL SUELO Y DE LOS ESPACIOS NATURALES PROTEGIDOS DE CANARIAS",
    "municipality": "ICOD DE LOS VINOS",
    "date": 2021,
    "category": "ORDENACION DEL TERRITORIO",
    "LAT": "28°28′03″N",
    "LON": "16°27′11″O",
    "lat": 28.4675,
    "lon": -16.453055556
  },
  {
    "title": "REDACCIÓN DEL DOCUMENTO DE JUSTIFICACIÓN TÉCNICA DE QUE NO SE HAN PRODUCIDO CAMBIOS SUSTANCIALES EN LOS ELEMENTOS ESENCIALES QUE SIRVIERON DE BASE PARA REALIZAR LA EVALUACIÓN AMBIENTAL ESTRATÉGICA DEL PLAN GENERAL DE ORDENACIÓN DE LA OROTAVA, DANDO CUMPLIMIENTO A LA DISPOSICIÓN TRANSITORIA SÉPTIMA EVALUACIÓN AMBIENTAL DE INSTRUMENTOS DE ORDENACIÓN EN TRÁMITE, DE LA LEY 4/2017, DE 13 DE JULIO, DEL SUELO Y DE LOS ESPACIOS NATURALES PROTEGIDOS DE CANARIAS",
    "municipality": "LA OROTAVA",
    "date": 2021,
    "category": "ORDENACION DEL TERRITORIO",
    "LAT": "28°28′10″N",
    "LON": "16°27′04″O",
    "lat": 28.469444444,
    "lon": -16.451111111
  },
  {
    "title": "REDACCIÓN DEL DOCUMENTO AMBIENTAL ESTRATÉGICO PARA LA EVALUACIÓN AMBIENTAL ESTRATÉGICA SIMPLIFICADA DE LA MODIFICACIÓN MENOR DEL PGO DE LOS REALEJOS, EN EL ENTORNO DE LA PARCELA DE LA PISCINA MUNICIPAL",
    "municipality": "LOS REALEJOS",
    "date": 2021,
    "category": "ORDENACION DEL TERRITORIO",
    "LAT": "28°28′18″N",
    "LON": "16°26′57″O",
    "lat": 28.471666667,
    "lon": -16.449166667
  },
  {
    "title": "REDACCIÓN DEL DOCUMENTO AMBIENTAL ESTRATÉGICO PARA LA EVALUACIÓN AMBIENTAL ESTRATÉGICA SIMPLIFICADA DE LA MODIFICACIÓN MENOR DEL PGO DE LA GUANCHA, ÁMBITO LAS CUCHARAS",
    "municipality": "LA GUANCHA",
    "date": 2021,
    "category": "ORDENACION DEL TERRITORIO",
    "LAT": "28°28′25″N",
    "LON": "16°26′50″O",
    "lat": 28.473611111,
    "lon": -16.447222222
  },
  {
    "title": "REDACCIÓN DEL DOCUMENTO AMBIENTAL ESTRATÉGICO PARA LA EVALUACIÓN AMBIENTAL ESTRATÉGICA SIMPLIFICADA DE LA MODIFICACIÓN MENOR DEL PGO DE GÜÍMAR, UNIDAD DE ACTUACIÓN EL TABLADO",
    "municipality": "GÜIMAR",
    "date": 2021,
    "category": "ORDENACION DEL TERRITORIO",
    "LAT": "28°28′32″N",
    "LON": "16°26′42″O",
    "lat": 28.475555556,
    "lon": -16.445
  },
  {
    "title": "REDACCIÓN DE DOCUMENTO INICIAL ESTRATÉGICO DEL PROYECTO DE INTERÉS INSULAR UNDERWATER GARDEN. GUÍA DE ISORA, TENERIFE.",
    "municipality": "GUIA DE ISORA",
    "date": 2021,
    "category": "ORDENACION DEL TERRITORIO",
    "LAT": "28°28′39″N",
    "LON": "16°26′35″O",
    "lat": 28.4775,
    "lon": -16.443055556
  },
  {
    "title": "REDACCIÓN DEL DOCUMENTO AMBIENTAL ESTRATÉGICO PARA LA EVALUACIÓN AMBIENTAL ESTRATÉGICA SIMPLIFICADA DE LA MODIFICACIÓN MENOR DEL PGO DE TEGUESTE, ÁMBITO ASENTAMIENTO RURAL EL PALOMAR",
    "municipality": "TEGUESTE",
    "date": 2021,
    "category": "ORDENACION DEL TERRITORIO",
    "LAT": "28°28′46″N",
    "LON": "16°26′28″O",
    "lat": 28.479444444,
    "lon": -16.441111111
  },
  {
    "title": "REDACCIÓN DEL DOCUMENTO AMBIENTAL ESTRATÉGICO PARA LA EVALUACIÓN AMBIENTAL ESTRATÉGICA SIMPLIFICADA DEL CATÁLOGO DE PATRIMONIO DE ANTIGUA. FUERTEVENTURA.",
    "municipality": "ANTIGUA",
    "date": 2020,
    "category": "ORDENACION DEL TERRITORIO",
    "LAT": "28°20′50″N",
    "LON": "14°00′10″O",
    "lat": 28.347222222,
    "lon": -14.002777778
  },
  {
    "title": "REDACCIÓN DEL DOCUMENTO AMBIENTAL ESTRATÉGICO PARA LA EVALUACIÓN AMBIENTAL ESTRATÉGICA ORDINARIA DE LA REVISIÓN DEL PLAN GENERAL DE ORDENACIÓN DE FRONTERA EL HIERRO. ÁMBITO DE LA UNIDAD DE ACTUACIÓN F-11. ÁREA EL CANAL (SUSO I).",
    "municipality": "FRONTERA",
    "date": 2020,
    "category": "ORDENACION DEL TERRITORIO",
    "LAT": "28°28′54″N",
    "LON": "16°26′21″O",
    "lat": 28.481666667,
    "lon": -16.439166667
  },
  {
    "title": "REDACCIÓN DEL DOCUMENTO AMBIENTAL ESTRATÉGICO PARA LA EVALUACIÓN AMBIENTAL ESTRATÉGICA SIMPLIFICADA DE LA MODIFICACIÓN MENOR Nº16 DEL PGO DE VILLA DE MAZO. LA PALMA.",
    "municipality": "VILLA DE MAZO",
    "date": 2020,
    "category": "ORDENACION DEL TERRITORIO",
    "LAT": "28°41′34″N",
    "LON": "17°50′27″O",
    "lat": 28.692777778,
    "lon": -17.840833333
  },
  {
    "title": "REDACCIÓN DEL DOCUMENTO AMBIENTAL ESTRATÉGICO PARA LA EVALUACIÓN AMBIENTAL ESTRATÉGICA SIMPLIFICADA DE LA MODIFICACIÓN MENOR DEL PGO DE ARAFO. ÁMBITO INDUSTRIAL. TENERIFE",
    "municipality": "ARAFO",
    "date": 2020,
    "category": "ORDENACION DEL TERRITORIO",
    "LAT": "28°29′08″N",
    "LON": "16°26′06″O",
    "lat": 28.485555556,
    "lon": -16.435
  },
  {
    "title": "REDACCIÓN DEL DOCUMENTO AMBIENTAL ESTRATÉGICO PARA LA EVALUACIÓN AMBIENTAL ESTRATÉGICA SIMPLIFICADA DE LA MODIFICACIÓN MENOR DEL PGO DE LA OROTAVA. EL DRAGO 1. TENERIFE",
    "municipality": "LA OROTAVA",
    "date": 2022,
    "category": "ORDENACION DEL TERRITORIO",
    "LAT": "28°29′15″N",
    "LON": "16°25′59″O",
    "lat": 28.4875,
    "lon": -16.433055556
  },
  {
    "title": "REDACCIÓN DEL DOCUMENTO INICIAL ESTRATÉGICO PARA EL COMIENZO DE LA EVALUACIÓN AMBIENTAL ESTRATÉGICA DEL PLAN PARCIAL SUB.S.N.O.-R1. LOS REALEJOS-TENERIFE.",
    "municipality": "LOS REALEJOS",
    "date": 2020,
    "category": "ORDENACION DEL TERRITORIO",
    "LAT": "28°29′22″N",
    "LON": "16°25′52″O",
    "lat": 28.489444444,
    "lon": -16.431111111
  },
  {
    "title": "REDACCIÓN DEL DOCUMENTO INICIAL ESTRATÉGICO DE LA EVALUACION AMBIENTAL ESTRATÉGICA ORDINARIA DE LA REVISIÓN PARCIAL DEL PGO DE FRONTERA EN EL SUELO URBANIZABLE NO SECTORIZADO ESTRATÉGICO (SUNSE) DE LA COOPERATIVA (M2). EL HIERRO",
    "municipality": "FRONTERA",
    "date": 2020,
    "category": "ORDENACION DEL TERRITORIO",
    "LAT": "28°29′30″N",
    "LON": "16°25′45″O",
    "lat": 28.491666667,
    "lon": -16.429166667
  },
  {
    "title": "REDACCIÓN DEL DOCUMENTO AMBIENTAL ESTRATÉGICA PARA LA EVALUACIÓN AMBIENTAL ESTRATÉGICA SIMPLIFICADA DE LA MODIFICACIÓN MENOR DEL PGO DE LA LAGUNA. ÁMBITO DEL PLAN ESPECIAL EL DRAGO.",
    "municipality": "SAN CRISTOBAL DE LA LAGUNA",
    "date": 2020,
    "category": "ORDENACION DEL TERRITORIO",
    "LAT": "28°29′37″N",
    "LON": "16°25′38″O",
    "lat": 28.493611111,
    "lon": -16.427222222
  },
  {
    "title": "REDACCIÓN ESTUDIO AMBIENTAL ESTRATÉGICO DE LAS NN DE CONSERVACIÓN DEL MONUMENTO NATURAL VOLCANES DE ARIDANE (P-6). LA PALMA",
    "municipality": "LOS LLANOS DE ARIDANE",
    "date": 2020,
    "category": "ORDENACION DEL TERRITORIO",
    "LAT": "28°41′41″N",
    "LON": "17°50′19″O",
    "lat": 28.694722222,
    "lon": -17.838611111
  },
  {
    "title": "REDACCIÓN DEL DOCUMENTO INICIAL ESTRATÉGICO DE LA MODIFICACIÓN SUSTANCIAL PARCIAL EN EL ÁMBITO DEL SUSNO 4 DEL PLAN GENERAL ORDENACIÓN DE TACORONTE",
    "municipality": "TACORONTE",
    "date": 2019,
    "category": "ORDENACION DEL TERRITORIO",
    "LAT": "28°29′44″N",
    "LON": "16°25′30″O",
    "lat": 28.495555556,
    "lon": -16.425
  },
  {
    "title": "REDACCIÓN ESTUDIO AMBIENTAL ESTRATÉGICO DE LA MODIFICACIÓN DE LAS NN DE CONSERVACIÓN DEL SITIO DE INTERÉS CIENTÍFICO BARRANCO DEL AGUA (P-18). LA PALMA",
    "municipality": "SANTA CRUZ DE LA PALMA",
    "date": 2018,
    "category": "ORDENACION DEL TERRITORIO",
    "LAT": "28°41′48″N",
    "LON": "17°50′12″O",
    "lat": 28.696666667,
    "lon": -17.836666667
  },
  {
    "title": "REDACCIÓN DEL DOCUMENTO AMBIENTAL ESTRATÉGICO PARA LA EVALUACIÓN AMBIENTAL ESTRATÉGICA SIMPLIFICADA DEL PLAN ESPECIAL PARA LA ACTUACIÓN DE RENOVACIÓN PARCIAL Y DE DOTACIÓN AUD-1, ÁMBITO 3.3.1. TÍO PINO. SANTA CRUZ DE TENERIFE",
    "municipality": "SANTA CRUZ DE TENERIFE",
    "date": 2018,
    "category": "ORDENACION DEL TERRITORIO",
    "LAT": "28°29′51″N",
    "LON": "16°25′23″O",
    "lat": 28.4975,
    "lon": -16.423055556
  },
  {
    "title": "REDACCIÓN DOCUMENTO INICIAL ESTRATÉGICO PARA EVALUACIÓN AMBIENTAL ESTRATÉGICA DEL ARTÍCULO 47 DE SUSPENSIÓN PARCIAL DEL PLAN RECTOR DE USO Y GESTIÓN DEL PARQUE NACIONAL DEL TEIDE Y DE REDACCIÓN DE NORMAS SUSTANTIVAS (EN TRAMITACIÓN).",
    "municipality": "LA OROTAVA",
    "date": 2018,
    "category": "ORDENACION DEL TERRITORIO",
    "LAT": "28°29′58″N",
    "LON": "16°25′16″O",
    "lat": 28.499444444,
    "lon": -16.421111111
  },
  {
    "title": "REDACCIÓN DEL ESTUDIO AMBIENTAL ESTRATÉGICO DE LA SUSPENSIÓN DE LAS NORMAS SUBSIDIARIAS DE ARICO EN LA ZONA DE LA PUNTA DE ABONA Y ESTABLECIMIENTO DE LAS NORMAS SUSTANTIVAS DE APLICACIÓN TRANSITORIA.",
    "municipality": "GRANADILLA DE ABONA",
    "date": 2018,
    "category": "ORDENACION DEL TERRITORIO",
    "LAT": "28°30′06″N",
    "LON": "16°25′09″O",
    "lat": 28.501666667,
    "lon": -16.419166667
  },
  {
    "title": "REDACCIÓN DEL DOCUMENTO INICIAL ESTRATÉGICA DE LA REVISIÓN DEL PLAN GENERAL DE ORDENACIÓN DE FRONTERA EL HIERRO. ÁMBITO DE LA UNIDAD DE ACTUACIÓN F-11. ÁREA EL CANAL (SUSO I)",
    "municipality": "FRONTERA",
    "date": 2018,
    "category": "ORDENACION DEL TERRITORIO",
    "LAT": "28°30′13″N",
    "LON": "16°25′02″O",
    "lat": 28.503611111,
    "lon": -16.417222222
  },
  {
    "title": "REDACCIÓN DOCUMENTO INICIAL ESTRATÉGICO DE LA MODIFICACIÓN DE LAS NN DE CONSERVACIÓN DEL MONUMENTO NATURAL DE VOLCANES DE ARIDANE (P-6). LA PALMA",
    "municipality": "LOS LLANOS DE ARIDANE",
    "date": 2018,
    "category": "ORDENACION DEL TERRITORIO",
    "LAT": "28°41′55″N",
    "LON": "17°50′05″O",
    "lat": 28.698611111,
    "lon": -17.834722222
  },
  {
    "title": "REDACCIÓN DOCUMENTO INICIAL ESTRATÉGICO DE LA MODIFICACIÓN DE LAS NN DE CONSERVACIÓN DEL SITIO DE INTERÉS CIENTÍFICO BARRANCO DEL AGUA (P-18). LA PALMA",
    "municipality": "PUNTALLANA",
    "date": 2018,
    "category": "ORDENACION DEL TERRITORIO",
    "LAT": "28°42′03″N",
    "LON": "17°49′58″O",
    "lat": 28.700833333,
    "lon": -17.832777778
  },
  {
    "title": "EVALUACIÓN AMBIENTAL ESTRATÉGICA SIMPLIFICADA DEL PLAN ESPECIAL DE PROTECCIÓN DEL SUIC DE EL PASO (LA PALMA).",
    "municipality": "EL PASO",
    "date": 2018,
    "category": "ORDENACION DEL TERRITORIO",
    "LAT": "28°42′10″N",
    "LON": "17°49′51″O",
    "lat": 28.702777778,
    "lon": -17.830833333
  },
  {
    "title": "REDACCIÓN DEL AVANCE Y EL DOCUMENTO DE CONSULTA PARA EL PROCEDIMIENTO DE EVALUACIÓN AMBIENTAL DEL PLAN TERRITORIAL ESPECIAL DE ORDENACIÓN DEL BIEN DE INTERÉS CULTURAL, CON CATEGORÍA DE ZONA ARQUEOLÓGICA, DEL BARRANCO AGUA DE DIOS (TEGUESTE, LA LAGUNA – TENERIFE)",
    "municipality": "TEGUESTE",
    "date": 2017,
    "category": "ORDENACION DEL TERRITORIO",
    "LAT": "28°30′20″N",
    "LON": "16°24′54″O",
    "lat": 28.505555556,
    "lon": -16.415
  },
  {
    "title": "EVALUACIÓN AMBIENTAL ESTRATÉGICA DE LA MODIFICACIÓN PUNTUAL DE LA NORMATIVA DE ORDENACIÓN PORMENORIZADA EN RELACIÓN A LOS ESPACIOS LIBRES EN EL SUELO URBANO CONSOLIDADO POR LA URBANIZACIÓN (SUCU) DEL PLAN GENERAL DE ORDENACIÓN DE EL PASO (LA PALMA)",
    "municipality": "EL PASO",
    "date": 2017,
    "category": "ORDENACION DEL TERRITORIO",
    "LAT": "28°42′17″N",
    "LON": "17°49′43″O",
    "lat": 28.704722222,
    "lon": -17.828611111
  },
  {
    "title": "REDACCIÓN NORMATIVA ÁMBITO EXTRACTIVO GUAMA-ARICO (DENTRO DEL PLAN TERRITORIAL PARCIAL DE ORDENACIÓN DEL COMPLEJO AMBIENTAL DE TENERIFE Y ÁMBITO EXTRACTIVO DE GUAMA-EL GRILLO)",
    "municipality": "ARICO",
    "date": 2016,
    "category": "ORDENACION DEL TERRITORIO",
    "LAT": "28°30′27″N",
    "LON": "16°24′47″O",
    "lat": 28.5075,
    "lon": -16.413055556
  },
  {
    "title": "MEMORIA AMBIENTAL DEL PLAN GENERAL DE ORDENACIÓN DE LA OROTAVA. TENERIFE",
    "municipality": "LA OROTAVA",
    "date": 2016,
    "category": "ORDENACION DEL TERRITORIO",
    "LAT": "28°30′34″N",
    "LON": "16°24′40″O",
    "lat": 28.509444444,
    "lon": -16.411111111
  },
  {
    "title": "MEMORIA AMBIENTAL DE LA APROBACIÓN INICIAL DEL PLAN INSULAR DE ORDENACIÓN DE FUERTEVENTURA",
    "municipality": "PUERTO DEL ROSARIO",
    "date": 2016,
    "category": "ORDENACION DEL TERRITORIO",
    "LAT": "28°20′57″N",
    "LON": "14°00′03″O",
    "lat": 28.349166667,
    "lon": -14.000833333
  },
  {
    "title": "MEMORIA AMBIENTAL DEL PLAN TERRITORIAL PARCIAL DE ORDENACIÓN DEL COMPLEJO AMBIENTAL DE TENERIFE Y ÁMBITO EXTRACTIVO DE GUAMA-EL GRILLO",
    "municipality": "ARICO",
    "date": 2016,
    "category": "ORDENACION DEL TERRITORIO",
    "LAT": "28°30′42″N",
    "LON": "16°24′33″O",
    "lat": 28.511666667,
    "lon": -16.409166667
  },
  {
    "title": "INFORME DE SOSTENIBILIDAD AMBIENTAL DEL PLAN ESPECIAL DE PROTECCIÓN DEL CONJUNTO HISTÓRICO DE LA VILLA DE TEGUISE. LANZAROTE",
    "municipality": "TEGUISE",
    "date": 2015,
    "category": "ORDENACION DEL TERRITORIO",
    "LAT": "29°02′56″N",
    "LON": "13°37′08″O",
    "lat": 29.048888889,
    "lon": -13.618888889
  },
  {
    "title": "MEMORIA AMBIENTAL DEL PLAN GENERAL DE ORDENACIÓN DE GARAFÍA, LA PALMA.",
    "municipality": "GARAFIA",
    "date": 2014,
    "category": "ORDENACION DEL TERRITORIO",
    "LAT": "28°42′24″N",
    "LON": "17°49′36″O",
    "lat": 28.706666667,
    "lon": -17.826666667
  },
  {
    "title": "MEMORIA AMBIENTAL DEL PLAN GENERAL DE ORDENACIÓN DE PUNTALLANA, LA PALMA.",
    "municipality": "PUNTALLANA",
    "date": 2014,
    "category": "ORDENACION DEL TERRITORIO",
    "LAT": "28°42′31″N",
    "LON": "17°49′29″O",
    "lat": 28.708611111,
    "lon": -17.824722222
  },
  {
    "title": "INFORME DE SOSTENIBILIDAD AMBIENTAL DE LA APROBACIÓN INICIAL DEL PLAN INSULAR DE ORDENACIÓN DE FUERTEVENTURA",
    "municipality": "PUERTO DEL ROSARIO",
    "date": 2014,
    "category": "ORDENACION DEL TERRITORIO",
    "LAT": "28°21′05″N",
    "LON": "13°59′55″O",
    "lat": 28.351388889,
    "lon": -13.998611111
  },
  {
    "title": "INFORME DE SOSTENIBILIDAD AMBIENTAL DEL PAT SAN SEBASTIÁN. LA OROTAVA, TENERIFE.",
    "municipality": "LA OROTAVA",
    "date": 2014,
    "category": "ORDENACION DEL TERRITORIO",
    "LAT": "28°30′49″N",
    "LON": "16°24′26″O",
    "lat": 28.513611111,
    "lon": -16.407222222
  },
  {
    "title": "MEMORIA AMBIENTAL DE LA REVISIÓN PARCIAL DEL PLAN GENERAL DE ORDENACIÓN DE LA OROTAVA, ÁMBITO CRUZ DE LOS MARTILLOS. TENERIFE",
    "municipality": "LA OROTAVA",
    "date": 2014,
    "category": "ORDENACION DEL TERRITORIO",
    "LAT": "28°30′56″N",
    "LON": "16°24′18″O",
    "lat": 28.515555556,
    "lon": -16.405
  },
  {
    "title": "INFORME DE SOSTENIBILIDAD AMBIENTAL DEL PLAN INSULAR DE ORDENACIÓN DE FUERTEVENTURA",
    "municipality": "PUERTO DEL ROSARIO",
    "date": 2014,
    "category": "ORDENACION DEL TERRITORIO",
    "LAT": "28°21′12″N",
    "LON": "13°59′48″O",
    "lat": 28.353333333,
    "lon": -13.996666667
  },
  {
    "title": "INFORME DE SOSTENIBILIDAD AMBIENTAL Y MEMORIA AMBIENTAL DEL PLAN DE REGADÍO DE CANARIAS",
    "municipality": "SANTA CRUZ DE TENERIFE",
    "date": 2013,
    "category": "ORDENACION DEL TERRITORIO",
    "LAT": "28°31′03″N",
    "LON": "16°24′11″O",
    "lat": 28.5175,
    "lon": -16.403055556
  },
  {
    "title": "INFORME DE SOSTENIBILIDAD AMBIENTAL DEL PLAN GENERAL DE ORDENACIÓN URBANA DE SANTA ÚRSULA. TENERIFE",
    "municipality": "SANTA URSULA",
    "date": 2013,
    "category": "ORDENACION DEL TERRITORIO",
    "LAT": "28°31′10″N",
    "LON": "16°24′04″O",
    "lat": 28.519444444,
    "lon": -16.401111111
  },
  {
    "title": "DOCUMENTO DE APROBACIÓN DEFINITIVA DEL PLAN INSULAR DE ORDENACIÓN DE EL HIERRO",
    "municipality": "VALVERDE",
    "date": 2013,
    "category": "ORDENACION DEL TERRITORIO",
    "LAT": "28°31′18″N",
    "LON": "16°23′57″O",
    "lat": 28.521666667,
    "lon": -16.399166667
  },
  {
    "title": "MEMORIA AMBIENTAL DE LA REVISIÓN PARCIAL DEL PLAN GENERAL DE ORDENACIÓN DE LA OROTAVA, SECTOR CENTRO VALLE. TENERIFE",
    "municipality": "LA OROTAVA",
    "date": 2013,
    "category": "ORDENACION DEL TERRITORIO",
    "LAT": "28°31′25″N",
    "LON": "16°23′50″O",
    "lat": 28.523611111,
    "lon": -16.397222222
  },
  {
    "title": "INFORME DE SOSTENIBILIDAD AMBIENTAL DEL PLAN TERRITORIAL PARCIAL DE ORDENACIÓN DEL COMPLEJO AMBIENTAL DE TENERIFE Y ÁMBITO EXTRACTIVO DE GUAMA-EL GRILLO",
    "municipality": "ARICO",
    "date": 2013,
    "category": "ORDENACION DEL TERRITORIO",
    "LAT": "28°31′32″N",
    "LON": "16°23′42″O",
    "lat": 28.525555556,
    "lon": -16.395
  },
  {
    "title": "MEMORIA AMBIENTAL DEL PLAN TERRITORIAL ESPECIAL DE ORDENACIÓN DE LA ACTIVIDAD INDUSTRIAL DE TENERIFE.",
    "municipality": "SANTA CRUZ DE TENERIFE",
    "date": 2013,
    "category": "ORDENACION DEL TERRITORIO",
    "LAT": "28°31′39″N",
    "LON": "16°23′35″O",
    "lat": 28.5275,
    "lon": -16.393055556
  },
  {
    "title": "DOCUMENTO DE APROBACIÓN INICIAL DEL PLAN TERRITORIAL ESPECIAL DE ORDENACIÓN DE LA ACTIVIDAD INDUSTRIAL DE TENERIFE.",
    "municipality": "SANTA CRUZ DE TENERIFE",
    "date": 2013,
    "category": "ORDENACION DEL TERRITORIO",
    "LAT": "28°31′46″N",
    "LON": "16°23′28″O",
    "lat": 28.529444444,
    "lon": -16.391111111
  },
  {
    "title": "INFORME DE SOSTENIBILIDAD AMBIENTAL DEL PLAN TERRITORIAL ESPECIAL DE ORDENACIÓN DE LA ACTIVIDAD INDUSTRIAL DE TENERIFE",
    "municipality": "SANTA CRUZ DE TENERIFE",
    "date": 2012,
    "category": "ORDENACION DEL TERRITORIO",
    "LAT": "28°31′54″N",
    "LON": "16°23′21″O",
    "lat": 28.531666667,
    "lon": -16.389166667
  },
  {
    "title": "MEMORIA AMBIENTAL DEL PLAN GENERAL DE ORDENACIÓN DE ARICO. TENERIFE",
    "municipality": "ARICO",
    "date": 2012,
    "category": "ORDENACION DEL TERRITORIO",
    "LAT": "28°32′01″N",
    "LON": "16°23′14″O",
    "lat": 28.533611111,
    "lon": -16.387222222
  },
  {
    "title": "MEMORIA AMBIENTAL DEL PLAN GENERAL DE ORDENACIÓN DE ICOD DE LOS VINOS. TENERIFE",
    "municipality": "ICOD DE LOS VINOS",
    "date": 2012,
    "category": "ORDENACION DEL TERRITORIO",
    "LAT": "28°32′08″N",
    "LON": "16°23′06″O",
    "lat": 28.535555556,
    "lon": -16.385
  },
  {
    "title": "DOCUMENTO DE APROBACIÓN DEFINITIVA DEL PLAN ESPECIAL DE ORDENACIÓN DE LA RESERVA AMBIENTAL DE SAN BLAS (SAN MIGUEL DE ABONA – TENERIFE)",
    "municipality": "SAN MIGUEL DE ABONA",
    "date": 2012,
    "category": "ORDENACION DEL TERRITORIO",
    "LAT": "28°32′15″N",
    "LON": "16°22′59″O",
    "lat": 28.5375,
    "lon": -16.383055556
  },
  {
    "title": "INFORME DE SOSTENIBILIDAD AMBIENTAL DEL PLAN TERRITORIAL ESPECIAL DE PAISAJE DE LA PALMA",
    "municipality": "SANTA CRUZ DE LA PALMA",
    "date": 2010,
    "category": "ORDENACION DEL TERRITORIO",
    "LAT": "28°42′39″N",
    "LON": "17°49′22″O",
    "lat": 28.710833333,
    "lon": -17.822777778
  },
  {
    "title": "DOCUMENTO DE APROBACIÓN INICIAL DEL PLAN INSULAR DE ORDENACIÓN DE EL HIERRO",
    "municipality": "VALVERDE",
    "date": 2010,
    "category": "ORDENACION DEL TERRITORIO",
    "LAT": "28°32′22″N",
    "LON": "16°22′52″O",
    "lat": 28.539444444,
    "lon": -16.381111111
  },
  {
    "title": "INFORME DE SOSTENIBILIDAD AMBIENTAL DE LA REVISIÓN PARCIAL DEL PLAN GENERAL DE ORDENACIÓN DE LA OROTAVA EN EL SECTOR CENTRO VALLE",
    "municipality": "LA OROTAVA",
    "date": 2010,
    "category": "ORDENACION DEL TERRITORIO",
    "LAT": "28°32′30″N",
    "LON": "16°22′45″O",
    "lat": 28.541666667,
    "lon": -16.379166667
  },
  {
    "title": "INFORME DE SOSTENIBILIDAD AMBIENTAL DE LA REVISIÓN PARCIAL DEL PLAN PARCIAL OSCAR DOMÍNGUEZ",
    "municipality": "LA OROTAVA",
    "date": 2010,
    "category": "ORDENACION DEL TERRITORIO",
    "LAT": "28°32′37″N",
    "LON": "16°22′38″O",
    "lat": 28.543611111,
    "lon": -16.377222222
  },
  {
    "title": "INFORME DE ADAPTACIÓN DEL PLAN GENERAL DE ORDENACIÓN DE BREÑA ALTA AL PLAN TERRITORIAL ESPECIAL DE ORDENACIÓN DEL TURISMO DE LA ISLA DE LA PALMA",
    "municipality": "BREÑA ALTA",
    "date": 2010,
    "category": "ORDENACION DEL TERRITORIO",
    "LAT": "28°42′46″N",
    "LON": "17°49′15″O",
    "lat": 28.712777778,
    "lon": -17.820833333
  },
  {
    "title": "INFORME DE SOSTENIBILIDAD AMBIENTAL DEL PLAN ESPECIAL DE ORDENACIÓN DEL CASCO HISTÓRICO DE SANTA CRUZ DE LA PALMA",
    "municipality": "SANTA CRUZ DE LA PALMA",
    "date": 2010,
    "category": "ORDENACION DEL TERRITORIO",
    "LAT": "28°42′53″N",
    "LON": "17°49′07″O",
    "lat": 28.714722222,
    "lon": -17.818611111
  },
  {
    "title": "INFORMACIÓN AMBIENTAL DEL SUELO URBANO CONSOLIDADO DE INTERÉS CULTURAL DE SANTA CRUZ DE LA PALMA",
    "municipality": "SANTA CRUZ DE LA PALMA",
    "date": 2009,
    "category": "ORDENACION DEL TERRITORIO",
    "LAT": "28°43′00″N",
    "LON": "17°49′00″O",
    "lat": 28.716666667,
    "lon": -17.816666667
  },
  {
    "title": "MEMORIA AMBIENTAL PLAN GENERAL DE ORDENACIÓN DE GARAFÍA (LA PALMA)",
    "municipality": "GARAFIA",
    "date": 2009,
    "category": "ORDENACION DEL TERRITORIO",
    "LAT": "28°43′07″N",
    "LON": "17°48′53″O",
    "lat": 28.718611111,
    "lon": -17.814722222
  },
  {
    "title": "MEMORIA AMBIENTAL PLAN ESPECIAL DE ORDENACIÓN DEL LITORAL DE TAZACORTE",
    "municipality": "TAZACORTE",
    "date": 2009,
    "category": "ORDENACION DEL TERRITORIO",
    "LAT": "28°32′44″N",
    "LON": "16°22′30″O",
    "lat": 28.545555556,
    "lon": -16.375
  },
  {
    "title": "INFORME DE ADAPTACIÓN DEL PLAN GENERAL DE ORDENACIÓN DE TIJARAFE AL PLAN TERRITORIAL ESPECIAL DE ORDENACIÓN DEL TURISMO DE LA ISLA DE LA PALMA",
    "municipality": "TIJARAFE",
    "date": 2009,
    "category": "ORDENACION DEL TERRITORIO",
    "LAT": "28°43′15″N",
    "LON": "17°48′46″O",
    "lat": 28.720833333,
    "lon": -17.812777778
  },
  {
    "title": "INFORME DE ADAPTACIÓN DEL PLAN GENERAL DE ORDENACIÓN DE GARAFÍA AL PLAN TERRITORIAL ESPECIAL DE ORDENACIÓN DEL TURISMO DE LA ISLA DE LA PALMA",
    "municipality": "GARAFIA",
    "date": 2009,
    "category": "ORDENACION DEL TERRITORIO",
    "LAT": "28°43′22″N",
    "LON": "17°48′39″O",
    "lat": 28.722777778,
    "lon": -17.810833333
  },
  {
    "title": "INFORME DE ADAPTACIÓN DEL PLAN GENERAL DE ORDENACIÓN DE TAZACORTE AL PLAN TERRITORIAL ESPECIAL DE ORDENACIÓN DEL TURISMO DE LA ISLA DE LA PALMA",
    "municipality": "TAZACORTE",
    "date": 2009,
    "category": "ORDENACION DEL TERRITORIO",
    "LAT": "28°43′29″N",
    "LON": "17°48′31″O",
    "lat": 28.724722222,
    "lon": -17.808611111
  },
  {
    "title": "INFORME DE ADAPTACIÓN DEL PLAN GENERAL DE ORDENACIÓN DE PUNTALLANA AL PLAN TERRITORIAL ESPECIAL DE ORDENACIÓN DEL TURISMO DE LA ISLA DE LA PALMA",
    "municipality": "PUNTALLANA",
    "date": 2009,
    "category": "ORDENACION DEL TERRITORIO",
    "LAT": "28°43′36″N",
    "LON": "17°48′24″O",
    "lat": 28.726666667,
    "lon": -17.806666667
  },
  {
    "title": "MEMORIA AMBIENTAL DEL PLAN ESPECIAL DE ORDENACIÓN DEL CASCO DE LA OROTAVA (TENERIFE)",
    "municipality": "LA OROTAVA",
    "date": 2009,
    "category": "ORDENACION DEL TERRITORIO",
    "LAT": "28°32′51″N",
    "LON": "16°22′23″O",
    "lat": 28.5475,
    "lon": -16.373055556
  },
  {
    "title": "INFORME DE SOSTENIBILIDAD DE LA MODIFICACIÓN PUNTUAL DEL PGO DE LA OROTAVA. UNIDAD ACTUACIÓN EL DRAGO 1",
    "municipality": "LA OROTAVA",
    "date": 2009,
    "category": "ORDENACION DEL TERRITORIO",
    "LAT": "28°32′58″N",
    "LON": "16°22′16″O",
    "lat": 28.549444444,
    "lon": -16.371111111
  },
  {
    "title": "INFORME DE SOSTENIBILIDAD DE LA MODIFICACIÓN PUNTUAL DEL PLAN GENERAL DE ORDENACIÓN DE LA OROTAVA, UNIDAD DE ACTUACIÓN “LOS PINOS”",
    "municipality": "LA OROTAVA",
    "date": 2009,
    "category": "ORDENACION DEL TERRITORIO",
    "LAT": "28°33′06″N",
    "LON": "16°22′09″O",
    "lat": 28.551666667,
    "lon": -16.369166667
  },
  {
    "title": "INFORME DE SOSTENIBILIDAD DE LA MODIFICACIÓN PUNTUAL DEL PLAN GENERAL DE ORDENACIÓN DE LA OROTAVA. UNIDAD DE ACTUACIÓN EL MONTURRIO (TENERIFE)",
    "municipality": "LA OROTAVA",
    "date": 2009,
    "category": "ORDENACION DEL TERRITORIO",
    "LAT": "28°33′13″N",
    "LON": "16°22′02″O",
    "lat": 28.553611111,
    "lon": -16.367222222
  },
  {
    "title": "INFORME DE SOSTENIBILIDAD DE LA MODIFICACIÓN PUNTUAL DEL PLAN GENERAL DE ORDENACIÓN DE LA OROTAVA. SECTOR OPUNTIA (TENERIFE)",
    "municipality": "LA OROTAVA",
    "date": 2009,
    "category": "ORDENACION DEL TERRITORIO",
    "LAT": "28°33′20″N",
    "LON": "16°21′54″O",
    "lat": 28.555555556,
    "lon": -16.365
  },
  {
    "title": "MEMORIA AMBIENTAL DEL PLAN ESPECIAL DE ORDENACIÓN DE LA RESERVA AMBIENTAL DE SAN BLAS (SAN MIGUEL DE ABONA – TENERIFE)",
    "municipality": "SAN MIGUEL DE ABONA",
    "date": 2009,
    "category": "ORDENACION DEL TERRITORIO",
    "LAT": "28°33′27″N",
    "LON": "16°21′47″O",
    "lat": 28.5575,
    "lon": -16.363055556
  },
  {
    "title": "MEMORIA AMBIENTAL DEL PLAN INSULAR DE ORDENACIÓN DE EL HIERRO",
    "municipality": "VALVERDE",
    "date": 2009,
    "category": "ORDENACION DEL TERRITORIO",
    "LAT": "28°33′34″N",
    "LON": "16°21′40″O",
    "lat": 28.559444444,
    "lon": -16.361111111
  },
  {
    "title": "INFORME DE SOSTENIBILIDAD DEL PLAN GENERAL DE ORDENACIÓN DE SANTA ÚRSULA (TENERIFE)",
    "municipality": "SANTA URSULA",
    "date": 2008,
    "category": "ORDENACION DEL TERRITORIO",
    "LAT": "28°33′42″N",
    "LON": "16°21′33″O",
    "lat": 28.561666667,
    "lon": -16.359166667
  },
  {
    "title": "INFORME SOBRE IMPACTO DEL PLAN RECTOR DE USO Y GESTIÓN DEL PARQUE NATURAL LA CORONA FORESTAL EN EL MUNICIPIO DE ARICO. (TENERIFE)",
    "municipality": "ARICO",
    "date": 2008,
    "category": "ORDENACION DEL TERRITORIO",
    "LAT": "28°33′49″N",
    "LON": "16°21′26″O",
    "lat": 28.563611111,
    "lon": -16.357222222
  },
  {
    "title": "INFORME DE SOSTENIBILIDAD DEL PLAN GENERAL DE ORDENACIÓN DE PUNTALLANA (LA PALMA)",
    "municipality": "PUNTALLANA",
    "date": 2008,
    "category": "ORDENACION DEL TERRITORIO",
    "LAT": "28°43′43″N",
    "LON": "17°48′17″O",
    "lat": 28.728611111,
    "lon": -17.804722222
  },
  {
    "title": "INFORME DE SOSTENIBILIDAD DEL PLAN GENERAL DE ORDENACIÓN DE TAZACORTE (LA PALMA)",
    "municipality": "TAZACORTE",
    "date": 2008,
    "category": "ORDENACION DEL TERRITORIO",
    "LAT": "28°43′51″N",
    "LON": "17°48′10″O",
    "lat": 28.730833333,
    "lon": -17.802777778
  },
  {
    "title": "INFORME DE SOSTENIBILIDAD DEL PLAN ESPECIAL DE ORDENACIÓN DEL CASCO DE LA OROTAVA (TENERIFE)",
    "municipality": "LA OROTAVA",
    "date": 2008,
    "category": "ORDENACION DEL TERRITORIO",
    "LAT": "28°33′56″N",
    "LON": "16°21′18″O",
    "lat": 28.565555556,
    "lon": -16.355
  },
  {
    "title": "INFORME DE SOSTENIBILIDAD DEL PLAN GENERAL DE ORDENACIÓN DE GARAFÍA (LA PALMA)",
    "municipality": "GARAFIA",
    "date": 2008,
    "category": "ORDENACION DEL TERRITORIO",
    "LAT": "28°43′58″N",
    "LON": "17°48′03″O",
    "lat": 28.732777778,
    "lon": -17.800833333
  },
  {
    "title": "DOCUMENTO DE APROBACIÓN INICIAL DEL PLAN ESPECIAL DE ORDENACIÓN DE LA RESERVA AMBIENTAL DE SAN BLAS (SAN MIGUEL DE ABONA – TENERIFE)",
    "municipality": "SAN MIGUEL DE ABONA",
    "date": 2008,
    "category": "ORDENACION DEL TERRITORIO",
    "LAT": "28°34′03″N",
    "LON": "16°21′11″O",
    "lat": 28.5675,
    "lon": -16.353055556
  },
  {
    "title": "AVANCE DE MODIFICACIÓN DEL PLAN INSULAR DE TENERIFE. (implantación de plantas fotovoltaicas en suelo rústico incluido en ARH de protección económica 1 y 3 de acuerdo con el PIOT)",
    "municipality": "SANTA CRUZ DE TENERIFE",
    "date": 2008,
    "category": "ORDENACION DEL TERRITORIO",
    "LAT": "28°34′10″N",
    "LON": "16°21′04″O",
    "lat": 28.569444444,
    "lon": -16.351111111
  },
  {
    "title": "INFORME DE SOSTENIBILIDAD DEL AVANCE DEL PLAN GENERAL DE ORDENACIÓN DE ARICO (TENERIFE)",
    "municipality": "ARICO",
    "date": 2008,
    "category": "ORDENACION DEL TERRITORIO",
    "LAT": "28°34′25″N",
    "LON": "16°20′50″O",
    "lat": 28.573611111,
    "lon": -16.347222222
  },
  {
    "title": "AVANCE DE ORDENACIÓN DEL SUELO RÚSTICO DEL MUNICIPIO DE ARICO – PLAN GENERAL DE ORDENACIÓN DE ARICO (TENERIFE)",
    "municipality": "ARICO",
    "date": 2008,
    "category": "ORDENACION DEL TERRITORIO",
    "LAT": "28°34′32″N",
    "LON": "16°20′42″O",
    "lat": 28.575555556,
    "lon": -16.345
  },
  {
    "title": "INFORME DE SOSTENIBILIDAD PLAN GENERAL DE ORDENACIÓN DE EL PASO. AYUNTAMIENTO DE EL PASO (LA PALMA)",
    "municipality": "EL PASO",
    "date": 2008,
    "category": "ORDENACION DEL TERRITORIO",
    "LAT": "28°44′05″N",
    "LON": "17°47′55″O",
    "lat": 28.734722222,
    "lon": -17.798611111
  },
  {
    "title": "INFORME ADAPTACIÓN NORMAS SUBSIDIARIAS DE ARICO AL TEXTO REFUNDIDO DE LAS LEYES DE ORDENACIÓN DEL TERRITORIO Y ESPACIOS NATURALES DE CANARIAS. AYUNTAMIENTO DE ARICO (TENERIFE)",
    "municipality": "ARICO",
    "date": 2008,
    "category": "ORDENACION DEL TERRITORIO",
    "LAT": "28°34′39″N",
    "LON": "16°20′35″O",
    "lat": 28.5775,
    "lon": -16.343055556
  },
  {
    "title": "MEMORIA AMBIENTAL PLAN GENERAL DE ORDENACIÓN DE TIJARAFE (LA PALMA)",
    "municipality": "TIJARAFE",
    "date": 2008,
    "category": "ORDENACION DEL TERRITORIO",
    "LAT": "28°44′12″N",
    "LON": "17°47′48″O",
    "lat": 28.736666667,
    "lon": -17.796666667
  },
  {
    "title": "INFORME DE SOSTENIBILIDAD DE LA REVISIÓN DEL PLAN GENERAL DE ORDENACIÓN DE PUNTALLANA (LA PALMA)",
    "municipality": "PUNTALLANA",
    "date": 2008,
    "category": "ORDENACION DEL TERRITORIO",
    "LAT": "28°44′19″N",
    "LON": "17°47′41″O",
    "lat": 28.738611111,
    "lon": -17.794722222
  },
  {
    "title": "MEMORIA AMBIENTAL (CAMBIOS SUSTANCIALES) PLAN GENERAL DE BREÑA ALTA (LA PALMA)",
    "municipality": "BREÑA ALTA",
    "date": 2008,
    "category": "ORDENACION DEL TERRITORIO",
    "LAT": "28°44′27″N",
    "LON": "17°47′34″O",
    "lat": 28.740833333,
    "lon": -17.792777778
  },
  {
    "title": "INFORME DE SOSTENIBILIDAD PROYECTO DE ACTUACIÓN TERRITORIAL DE PLANTA FOTOVOLTAICA EN AGACHE – GÜÍMAR (TENERIFE)",
    "municipality": "GÜIMAR",
    "date": 2008,
    "category": "ORDENACION DEL TERRITORIO",
    "LAT": "28°34′46″N",
    "LON": "16°20′28″O",
    "lat": 28.579444444,
    "lon": -16.341111111
  },
  {
    "title": "APROBACIÓN INICIAL DEL PLAN ESPECIAL DE ORDENACIÓN DE EDIFICACIONES CENSADAS. AYUNTAMIENTO DE PUNTALLANA (LA PALMA)",
    "municipality": "PUNTALLANA",
    "date": 2007,
    "category": "ORDENACION DEL TERRITORIO",
    "LAT": "28°44′34″N",
    "LON": "17°47′27″O",
    "lat": 28.742777778,
    "lon": -17.790833333
  },
  {
    "title": "INFORME DE SOSTENIBILIDAD DEL PLAN ESPECIAL DE ORDENACIÓN DE EDIFICACIONES CENSADAS. AYUNTAMIENTO DE PUNTALLANA (LA PALMA)",
    "municipality": "PUNTALLANA",
    "date": 2007,
    "category": "ORDENACION DEL TERRITORIO",
    "LAT": "28°44′41″N",
    "LON": "17°47′19″O",
    "lat": 28.744722222,
    "lon": -17.788611111
  },
  {
    "title": "APROBACIÓN INICIAL DEL PLAN ESPECIAL DE ORDENACIÓN DEL ÁMBITO DEL SISTEMA GENERAL DE EQUIPAMIENTO CIENTÍFICO DEL ROQUE DE LOS MUCHACHOS. AYUNTAMIENTO DE GARAFÍA (LA PALMA)",
    "municipality": "GARAFIA",
    "date": 2007,
    "category": "ORDENACION DEL TERRITORIO",
    "LAT": "28°44′48″N",
    "LON": "17°47′12″O",
    "lat": 28.746666667,
    "lon": -17.786666667
  },
  {
    "title": "INFORME DE SOSTENIBILIDAD DEL PLAN ESPECIAL DE ORDENACIÓN DEL ÁMBITO DEL SISTEMA GENERAL DE EQUIPAMIENTO CIENTÍFICO DEL ROQUE DE LOS MUCHACHOS. AYUNTAMIENTO DE GARAFÍA (LA PALMA)",
    "municipality": "GARAFIA",
    "date": 2007,
    "category": "ORDENACION DEL TERRITORIO",
    "LAT": "28°44′55″N",
    "LON": "17°47′05″O",
    "lat": 28.748611111,
    "lon": -17.784722222
  },
  {
    "title": "MEMORIA AMBIENTAL DEL PLAN ESPECIAL DE ORDENACIÓN DEL LITORAL (PEOL-3) PUERTO DE TAZACORTE",
    "municipality": "TAZACORTE",
    "date": 2007,
    "category": "ORDENACION DEL TERRITORIO",
    "LAT": "28°34′54″N",
    "LON": "16°20′21″O",
    "lat": 28.581666667,
    "lon": -16.339166667
  },
  {
    "title": "REDACCIÓN DE AVANCE DEL PLAN ESPECIAL TERRITORIAL DE ORDENACIÓN DEL ÁMBITO DE SAN BLAS (SAN MIGUEL – TENERIFE)",
    "municipality": "SAN MIGUEL DE ABONA",
    "date": 2007,
    "category": "ORDENACION DEL TERRITORIO",
    "LAT": "28°35′01″N",
    "LON": "16°20′14″O",
    "lat": 28.583611111,
    "lon": -16.337222222
  },
  {
    "title": "INFORME DE SOSTENIBILIDAD DEL PLAN INSULAR DE ORDENACIÓN DE EL HIERRO.",
    "municipality": "VALVERDE",
    "date": 2007,
    "category": "ORDENACION DEL TERRITORIO",
    "LAT": "28°35′08″N",
    "LON": "16°20′06″O",
    "lat": 28.585555556,
    "lon": -16.335
  },
  {
    "title": "MEMORIA AMBIENTAL DEL PLAN GENERAL DE ORDENACIÓN DE BREÑA ALTA (LA PALMA). Ley 9/2006",
    "municipality": "BREÑA ALTA",
    "date": 2007,
    "category": "ORDENACION DEL TERRITORIO",
    "LAT": "28°45′03″N",
    "LON": "17°46′58″O",
    "lat": 28.750833333,
    "lon": -17.782777778
  },
  {
    "title": "INFORME DE SOSTENIBILIDAD DEL PLAN ESPECIAL DE ORDENACIÓN DEL LITORAL (PEOL-3) PUERTO DE TAZACORTE. ISLA DE LA PALMA. Ley 9/2006",
    "municipality": "TAZACORTE",
    "date": 2006,
    "category": "ORDENACION DEL TERRITORIO",
    "LAT": "28°45′10″N",
    "LON": "17°46′51″O",
    "lat": 28.752777778,
    "lon": -17.780833333
  },
  {
    "title": "INFORME DE SOSTENIBILIDAD DEL PLAN GENERAL DE ORDENACIÓN DE GARAFÍA.",
    "municipality": "GARAFIA",
    "date": 2006,
    "category": "ORDENACION DEL TERRITORIO",
    "LAT": "28°35′22″N",
    "LON": "16°19′52″O",
    "lat": 28.589444444,
    "lon": -16.331111111
  },
  {
    "title": "INFORME DE SOSTENIBILIDAD DEL PLAN GENERAL DE ORDENACIÓN DE TIJARAFE.",
    "municipality": "TIJARAFE",
    "date": 2006,
    "category": "ORDENACION DEL TERRITORIO",
    "LAT": "28°35′30″N",
    "LON": "16°19′45″O",
    "lat": 28.591666667,
    "lon": -16.329166667
  },
  {
    "title": "NORMAS DE CONSERVACIÓN DEL SITIO DE INTERÉS CIENTÍFICO DE LA CALETA (TENERIFE)",
    "municipality": "ADEJE",
    "date": 2006,
    "category": "ORDENACION DEL TERRITORIO",
    "LAT": "28°35′37″N",
    "LON": "16°19′38″O",
    "lat": 28.593611111,
    "lon": -16.327222222
  },
  {
    "title": "NORMAS DE CONSERVACIÓN DEL SITIO DE INTERÉS CIENTÍFICO DE LOS ACANTILADOS DE ISORANA (TENERIFE)",
    "municipality": "GUIA DE ISORA",
    "date": 2006,
    "category": "ORDENACION DEL TERRITORIO",
    "LAT": "28°35′44″N",
    "LON": "16°19′30″O",
    "lat": 28.595555556,
    "lon": -16.325
  },
  {
    "title": "NORMAS DE CONSERVACIÓN DEL SITIO DE INTERÉS CIENTÍFICO DE BARRANCO DE RUIZ (TENERIFE)",
    "municipality": "SAN JUAN DE LA RAMBLA",
    "date": 2006,
    "category": "ORDENACION DEL TERRITORIO",
    "LAT": "28°35′51″N",
    "LON": "16°19′23″O",
    "lat": 28.5975,
    "lon": -16.323055556
  },
  {
    "title": "NORMAS DE CONSERVACIÓN DEL SITIO DE INTERÉS CIENTÍFICO DE INTERIAN (TENERIFE)",
    "municipality": "GARACHICO",
    "date": 2006,
    "category": "ORDENACION DEL TERRITORIO",
    "LAT": "28°35′58″N",
    "LON": "16°19′16″O",
    "lat": 28.599444444,
    "lon": -16.321111111
  },
  {
    "title": "CONTENIDOS AMBIENTALES DEL AVANCE DEL PLAN GENERAL DE ORDENACIÓN DEL MUNICIPIO DE LOS SILOS(TENERIFE)",
    "municipality": "LOS SILOS",
    "date": 2006,
    "category": "ORDENACION DEL TERRITORIO",
    "LAT": "28°36′06″N",
    "LON": "16°19′09″O",
    "lat": 28.601666667,
    "lon": -16.319166667
  },
  {
    "title": "ACTUALIZACIÓN DE BASES DE DATOS GEORREFERENCIADA DE MAPAS DE CULTIVOS DE CANARIAS PARA SU POSTERIOR EXPLOTACIÓN ESTADÍSTICA (INCORPORACIÓN NUEVO MAPA DE CULTIVOS DE GRAN CANARIA)",
    "municipality": "LAS PALMAS DE GRAN CANARIA",
    "date": 2025,
    "category": "DESARROLLO RURAL",
    "LAT": "27°58′52″N",
    "LON": "15°35′10″O",
    "lat": 27.981111111,
    "lon": -15.586111111
  },
  {
    "title": "ANÁLISIS DE RESULTADOS Y EVOLUCIÓN DEL MAPA DE CULTIVOS DE GRAN CANARIA.",
    "municipality": "LAS PALMAS DE GRAN CANARIA",
    "date": 2013,
    "category": "DESARROLLO RURAL",
    "LAT": "27°58′59″N",
    "LON": "15°35′02″O",
    "lat": 27.983055556,
    "lon": -15.583888889
  },
  {
    "title": "ANÁLISIS DE RESULTADOS DE LA ENCUESTA RURAL DE TENERIFE",
    "municipality": "SANTA CRUZ DE TENERIFE",
    "date": 2008,
    "category": "DESARROLLO RURAL",
    "LAT": "28°36′34″N",
    "LON": "16°18′40″O",
    "lat": 28.609444444,
    "lon": -16.311111111
  },
  {
    "title": "ANÁLISIS SOCIOECONÓMICO Y TIPIFICACIÓN DEL MEDIO RURAL DE TENERIFE DE CARA A LA PREPARACIÓN DE UNA ENCUESTA SOCIOECONÓMICA COMPLEMENTARIA A LA REVISIÓN DEL \"MAPA DE CULTIVOS DE LA ISLA DE TENERIFE\"",
    "municipality": "SANTA CRUZ DE TENERIFE",
    "date": 2003,
    "category": "DESARROLLO RURAL",
    "LAT": "28°36′49″N",
    "LON": "16°18′26″O",
    "lat": 28.613611111,
    "lon": -16.307222222
  },
  {
    "title": "DISEÑO DE LA METODOLOGÍA DE ANÁLISIS DE LAS ZONAS RURALES DE LA ISLA DE TENERIFE",
    "municipality": "SANTA CRUZ DE TENERIFE",
    "date": 2001,
    "category": "DESARROLLO RURAL",
    "LAT": "28°36′56″N",
    "LON": "16°18′18″O",
    "lat": 28.615555556,
    "lon": -16.305
  },
  {
    "title": "ESTUDIO DEL PAISAJE PARA EL PROYECTO DE INTERÉS INSULAR PARQUE REGENERATIVO UNDERWATER GARDENS PARK TENERIFE ",
    "municipality": "ALCALA",
    "date": "EN REDACCION",
    "category": "ESTUDIOS TERRITORIALES",
    "LAT": "28°37′03″N",
    "LON": "16°18′11″O",
    "lat": 28.6175,
    "lon": -16.303055556
  },
  {
    "title": "COLABORACIÓN EN EL EQUIPO REDACTOR DEL MODELO DE DESARROLLO SOSTENIBLE Y PLAN DE ACCIÓN PARA EL PRESENTE Y FUTURO DE LAS POLÍTICAS TERRITORIALES DEL MUNICIPIO DE SAN CRISTÓBAL DE LA LAGUNA. Proyecto redactado por la Fundación Ecología Urbana y Territorial y Cabrera-Febles Estudio de Arquitectura.",
    "municipality": "SAN CRISTOBAL DE LA LAGUNA",
    "date": 2024,
    "category": "ESTUDIOS TERRITORIALES",
    "LAT": "28°37′10″N",
    "LON": "16°18′04″O",
    "lat": 28.619444444,
    "lon": -16.301111111
  },
  {
    "title": "REDACCIÓN DE UN DOCUMENTO DE APOYO DE UNA ESTRATEGIA ESPECÍFICA DE DESARROLLO DE LA RED CANARIA DE RESERVAS DE LA BIOSFERA Y LOS GEOPARQUES, ASÍ COMO UNA PROPUESTA DE GRANDES LÍNEAS DE ACTUACIÓN.",
    "municipality": "SANTA CRUZ DE TENERIFE",
    "date": 2022,
    "category": "ESTUDIOS TERRITORIALES",
    "LAT": "28°37′18″N",
    "LON": "16°17′57″O",
    "lat": 28.621666667,
    "lon": -16.299166667
  },
  {
    "title": "INFORME SOCIODEMOGRÁFICO PARA LA MODIFICACIÓN MENOR DEL PLAN ESPECIAL MONTAÑA DEL ARCO (SAN CRISTÓBAL DE LA LAGUNA, TENERIFE)",
    "municipality": "SAN CRISTOBAL DE LA LAGUNA",
    "date": 2022,
    "category": "ESTUDIOS TERRITORIALES",
    "LAT": "28°37′25″N",
    "LON": "16°17′50″O",
    "lat": 28.623611111,
    "lon": -16.297222222
  },
  {
    "title": "INFORME IMPACTO EMPRESARIAL DEL PLAN GENERAL DE ORDENACIÓN DE LA OROTAVA.",
    "municipality": "LA OROTAVA",
    "date": 2021,
    "category": "ESTUDIOS TERRITORIALES",
    "LAT": "28°37′32″N",
    "LON": "16°17′42″O",
    "lat": 28.625555556,
    "lon": -16.295
  },
  {
    "title": "REDACCIÓN DEL INFORME DE EVALUACIÓN Y SEGUIMIENTO DE LAS ACTUACIONES PREVISTAS EN EL PRIT Y DESARROLLADAS EN EL PMM. ACCIÓN GE1702 “PROGRAMA DE SEGUIMIENTO Y MONITORIZACIÓN DEL PLAN”, T.M. PUERTO DE LA CRUZ",
    "municipality": "PUERTO DE LA CRUZ",
    "date": 2021,
    "category": "ESTUDIOS TERRITORIALES",
    "LAT": "28°37′39″N",
    "LON": "16°17′35″O",
    "lat": 28.6275,
    "lon": -16.293055556
  },
  {
    "title": "ESTUDIO DE VISIBILIDAD Y RECOMENDACIÓN DE INTEGRACIÓN PAISAJÍSTICA DE PLACAS FOTOVOLTAICAS EN LAS INSTALACIONES DE TELEFÉRICO DEL TEIDE.",
    "municipality": "LA OROTAVA",
    "date": 2020,
    "category": "ESTUDIOS TERRITORIALES",
    "LAT": "28°37′46″N",
    "LON": "16°17′28″O",
    "lat": 28.629444444,
    "lon": -16.291111111
  },
  {
    "title": "ESTUDIO DEL CAUCE DEL TRAMO DE BARRANCO DE LA PUNTA BLANCA DESDE TF-47 HASTA DESEMBOCADURA EN LA PIEDRA NAVIO (ÁMBITO DE PUNTA BLANCA, GUÍA DE ISORA, TENERIFE).",
    "municipality": "GUIA DE ISORA",
    "date": 2020,
    "category": "ESTUDIOS TERRITORIALES",
    "LAT": "28°37′54″N",
    "LON": "16°17′21″O",
    "lat": 28.631666667,
    "lon": -16.289166667
  },
  {
    "title": "ESTUDIO SOCIOECONÓMICO DEL MUNICIPIO DE LA OROTAVA. DOCUMENTO PERTENECIENTE AL PLAN GENERAL DE ORDENACIÓN",
    "municipality": "LA OROTAVA",
    "date": 2011,
    "category": "ESTUDIOS TERRITORIALES",
    "LAT": "28°38′15″N",
    "LON": "16°16′59″O",
    "lat": 28.6375,
    "lon": -16.283055556
  },
  {
    "title": "INFORME DE IDENTIFICACIÓN Y CARACTERIZACIÓN GEOLÓGICA Y GEOMORFOLÓGICA DE MATERIALES VOLCÁNICOS EXTRACTIVOS EN LAS CANTERAS DE MONTES DE LUNA, CALLEJONES Y CALLEJÓN DE LA GATA, EN LA ISLA DE LA PALMA.",
    "municipality": "VILLA DE MAZO",
    "date": 2009,
    "category": "ESTUDIOS TERRITORIALES",
    "LAT": "28°45′17″N",
    "LON": "17°46′43″O",
    "lat": 28.754722222,
    "lon": -17.778611111
  },
  {
    "title": "ESTUDIO BÁSICO DE RIESGOS NATURALES DEL MUNICIPIO DE GARACHICO (TENERIFE)",
    "municipality": "GARACHICO",
    "date": 2009,
    "category": "ESTUDIOS TERRITORIALES",
    "LAT": "28°38′22″N",
    "LON": "16°16′52″O",
    "lat": 28.639444444,
    "lon": -16.281111111
  },
  {
    "title": "ESTUDIO BÁSICO DE RIESGOS NATURALES DEL MUNICIPIO DE ARICO (TENERIFE)",
    "municipality": "ARICO",
    "date": 2008,
    "category": "ESTUDIOS TERRITORIALES",
    "LAT": "28°38′30″N",
    "LON": "16°16′45″O",
    "lat": 28.641666667,
    "lon": -16.279166667
  },
  {
    "title": "ESTUDIO DE RIESGOS DE AVENIDA Y DESPRENDIMIENTOS DEL MUNICIPIO DE GUÍA DE ISORA (TENERIFE)",
    "municipality": "GUIA DE ISORA",
    "date": 2008,
    "category": "ESTUDIOS TERRITORIALES",
    "LAT": "28°38′37″N",
    "LON": "16°16′38″O",
    "lat": 28.643611111,
    "lon": -16.277222222
  },
  {
    "title": "REVISIÓN ESTUDIO HÍDRICO BREÑA ALTA (LA PALMA)",
    "municipality": "BREÑA ALTA",
    "date": 2007,
    "category": "ESTUDIOS TERRITORIALES",
    "LAT": "28°45′24″N",
    "LON": "17°46′36″O",
    "lat": 28.756666667,
    "lon": -17.776666667
  },
  {
    "title": "ESTUDIO DE INUNDABILIDAD DE LOS TRAMOS DE BARRANCO AFECTADOS POR ASENTAMIENTOS RURALES Y SUELOS URBANOS EN EL DOCUMENTO DE APROBACIÓN INICIAL DEL PGO DE BREÑA ALTA (LA PALMA)",
    "municipality": "BREÑA ALTA",
    "date": 2011,
    "category": "ESTUDIOS TERRITORIALES",
    "LAT": "28°45′31″N",
    "LON": "17°46′29″O",
    "lat": 28.758611111,
    "lon": -17.774722222
  },
  {
    "title": "REVISIÓN DEL ANÁLISIS DEMOGRAFICO DEL MUNICIPIO DE TEROR (GRAN CANARIA) PARA LA REDACCIÓN DEL PLAN GENERAL DE ORDENACIÓN.",
    "municipality": "LAS PALMAS DE GRAN CANARIA",
    "date": 2009,
    "category": "ESTUDIOS TERRITORIALES",
    "LAT": "27°59′06″N",
    "LON": "15°34′55″O",
    "lat": 27.985,
    "lon": -15.581944444
  },
  {
    "title": "REVISIÓN DEL ANÁLISIS DEMOGRAFICO DEL MUNICIPIO DE TACORONTE (TENERIFE) PARA LA REDACCIÓN DEL PLAN GENERAL DE ORDENACIÓN.",
    "municipality": "TACORONTE",
    "date": 2008,
    "category": "ESTUDIOS TERRITORIALES",
    "LAT": "28°38′44″N",
    "LON": "16°16′30″O",
    "lat": 28.645555556,
    "lon": -16.275
  },
  {
    "title": "ACTUALIZACIÓN ENCUESTA DE INFRAESTRUCTURAS Y EQUIPAMIENTOS LOCALES DE LOS MUNICIPIOS DE SANTA CRUZ DE TENERIFE Y SAN CRISTÓBAL DE LA LAGUNA",
    "municipality": "SANTA CRUZ DE TENERIFE",
    "date": 2007,
    "category": "ESTUDIOS TERRITORIALES",
    "LAT": "28°38′51″N",
    "LON": "16°16′23″O",
    "lat": 28.6475,
    "lon": -16.273055556
  },
  {
    "title": "ATLAS COMERCIAL ÁREA METROPOLITANA DE TENERIFE",
    "municipality": "SANTA CRUZ DE TENERIFE",
    "date": 2007,
    "category": "ESTUDIOS TERRITORIALES",
    "LAT": "28°38′58″N",
    "LON": "16°16′16″O",
    "lat": 28.649444444,
    "lon": -16.271111111
  },
  {
    "title": "ANÁLISIS DE LA SITUACIÓN AGRARIA DEL MUNICIPIO DE GÜÍMAR (TENERIFE) PARA LA REDACCIÓN DEL PLAN GENERAL DE ORDENACIÓN",
    "municipality": "GÜIMAR",
    "date": 2007,
    "category": "ESTUDIOS TERRITORIALES",
    "LAT": "28°39′06″N",
    "LON": "16°16′09″O",
    "lat": 28.651666667,
    "lon": -16.269166667
  },
  {
    "title": "DIAGNÓSTICOS ZONALES Y SECTORIALES DE OPORTUNIDADES DE INVERSIÓN, EMPLEO Y AUTOEMPLEO DE SANTA CRUZ DE TENERIFE",
    "municipality": "SANTA CRUZ DE TENERIFE",
    "date": 2007,
    "category": "ESTUDIOS TERRITORIALES",
    "LAT": "28°39′13″N",
    "LON": "16°16′02″O",
    "lat": 28.653611111,
    "lon": -16.267222222
  },
  {
    "title": "ANÁLISIS TERRITORIAL DE LOS ASENTAMIENTOS RURALES DE LOS ÁMBITOS DE GUAMASA Y ZONA CENTRO PARA LA REVISIÓN DEL PLAN GENERAL DE ORDENACIÓN DE SAN CRISTÓBAL DE LA LAGUNA (TENERIFE)",
    "municipality": "SAN CRISTOBAL DE LA LAGUNA",
    "date": 2007,
    "category": "ESTUDIOS TERRITORIALES",
    "LAT": "28°39′20″N",
    "LON": "16°15′54″O",
    "lat": 28.655555556,
    "lon": -16.265
  },
  {
    "title": "ESTUDIO SOCIOECONÓMICO Y DEMOGRÁFICO DE LOS ÁMBITOS DE GUAMASA Y ZONA CENTRO PARA LA REVISIÓN DEL PLAN GENERAL DE ORDENACIÓN DE SAN CRISTÓBAL DE LA LAGUNA (TENERIFE)",
    "municipality": "SAN CRISTOBAL DE LA LAGUNA",
    "date": 2007,
    "category": "ESTUDIOS TERRITORIALES",
    "LAT": "28°39′27″N",
    "LON": "16°15′47″O",
    "lat": 28.6575,
    "lon": -16.263055556
  },
  {
    "title": "ANÁLISIS DEMOGRAFICO DEL MUNICIPIO DE TEROR (GRAN CANARIA) PARA LA REDACCIÓN DEL PLAN GENERAL DE ORDENACIÓN.",
    "municipality": "TEROR",
    "date": 2006,
    "category": "ESTUDIOS TERRITORIALES",
    "LAT": "27°59′13″N",
    "LON": "15°34′48″O",
    "lat": 27.986944444,
    "lon": -15.58
  },
  {
    "title": "ANÁLISIS DEMOGRAFICO DEL MUNICIPIO DE GÜÍMAR (TENERIFE) PARA LA REDACCIÓN DEL PLAN GENERAL DE ORDENACIÓN.",
    "municipality": "GÜIMAR",
    "date": 2005,
    "category": "ESTUDIOS TERRITORIALES",
    "LAT": "28°39′34″N",
    "LON": "16°15′40″O",
    "lat": 28.659444444,
    "lon": -16.261111111
  },
  {
    "title": "ANÁLISIS DEMOGRAFICO DEL MUNICIPIO DE HARÍA (LANZAROTE) PARA LA REDACCIÓN DEL PLAN GENERAL DE ORDENACIÓN.",
    "municipality": "HARIA",
    "date": 2005,
    "category": "ESTUDIOS TERRITORIALES",
    "LAT": "29°03′04″N",
    "LON": "13°37′01″O",
    "lat": 29.051111111,
    "lon": -13.616944444
  },
  {
    "title": "ACTUALIZACIÓN DEL CATÁLOGO DE ÁREAS Y POLÍGONOS INDUSTRIALES DE TENERIFE: ATLAS INDUSTRIAL DE TENERIFE",
    "municipality": "SANTA CRUZ DE TENERIFE",
    "date": 2004,
    "category": "ESTUDIOS TERRITORIALES",
    "LAT": "28°39′42″N",
    "LON": "16°15′33″O",
    "lat": 28.661666667,
    "lon": -16.259166667
  },
  {
    "title": "ANÁLISIS DEMOGRAFICO DEL MUNICIPIO DE TACORONTE (TENERIFE) PARA LA REDACCIÓN DEL PLAN GENERAL DE ORDENACIÓN.",
    "municipality": "TACORONTE",
    "date": 2004,
    "category": "ESTUDIOS TERRITORIALES",
    "LAT": "28°39′49″N",
    "LON": "16°15′26″O",
    "lat": 28.663611111,
    "lon": -16.257222222
  },
  {
    "title": "ELABORACIÓN DE UNA BASE DE DATOS GEORREFERENCIADA DE LAS CANTERAS EN ACTIVO EN TENERIFE",
    "municipality": "SANTA CRUZ DE TENERIFE",
    "date": 2001,
    "category": "ESTUDIOS TERRITORIALES",
    "LAT": "28°40′03″N",
    "LON": "16°15′11″O",
    "lat": 28.6675,
    "lon": -16.253055556
  },
  {
    "title": "CALCULO DE LOS DÉFICIT MUNICIPALES EN INFRAESTRUCTURAS EN LA ISLA DE TENERIFE",
    "municipality": "SANTA CRUZ DE TENERIFE",
    "date": 2001,
    "category": "ESTUDIOS TERRITORIALES",
    "LAT": "28°40′10″N",
    "LON": "16°15′04″O",
    "lat": 28.669444444,
    "lon": -16.251111111
  },
  {
    "title": "BASE DE DATOS GEORREFERENCIADA DE LOS DÉFICIT DE EQUIPAMIENTOS DE LOS NÚCLEOS DE LA ISLA DE TENERIFE",
    "municipality": "SANTA CRUZ DE TENERIFE",
    "date": 2001,
    "category": "ESTUDIOS TERRITORIALES",
    "LAT": "28°40′18″N",
    "LON": "16°14′57″O",
    "lat": 28.671666667,
    "lon": -16.249166667
  },
  {
    "title": "ANÁLISIS DE LA SITUACIÓN DEL EMPLEO Y LAS DIRECTRICES DE FORMACIÓN TERRITORIALIZADAS EN EL ÁMBITO DE NÚCLEO DE POBLACIÓN",
    "municipality": "SANTA CRUZ DE TENERIFE",
    "date": 2000,
    "category": "ESTUDIOS TERRITORIALES",
    "LAT": "28°40′25″N",
    "LON": "16°14′50″O",
    "lat": 28.673611111,
    "lon": -16.247222222
  },
  {
    "title": "ESTIMACIÓN Y GEORREFERENCIACIÓN DE LA POBLACIÓN ASOCIADA A LOS CÓDIGOS POSTALES DE LA ISLA DE TENERIFE",
    "municipality": "SANTA CRUZ DE TENERIFE",
    "date": 2000,
    "category": "ESTUDIOS TERRITORIALES",
    "LAT": "28°40′32″N",
    "LON": "16°14′42″O",
    "lat": 28.675555556,
    "lon": -16.245
  },
  {
    "title": "GEOREFERENCIACIÓN DEL CENSO DE EMPRESA DE SANTA CRUZ DE TENERIFE SEGÚN EL IAE (2018). SANTA CRUZ DE TENERIFE",
    "municipality": "SANTA CRUZ DE TENERIFE",
    "date": 2018,
    "category": "SISTEMAS DE INFORMACION GEOGRAFICA Y CARTOGRAFICA",
    "LAT": "28°40′39″N",
    "LON": "16°14′35″O",
    "lat": 28.6775,
    "lon": -16.243055556
  },
  {
    "title": "APOYO TECNOLÓGICO AL “PROYECTO PILOTO DE INFORMACIÓN SOBRE ACCESIBILIDAD PARA SU INCORPORACIÓN EN PLATAFORMA INSULAR” EN PARA EL ÁREA DE ACCESIBILIDAD DE LA SOCIEDAD INSULAR PARA LA PROMOCIÓN DE LAS PERSONAS CON DISCAPACIDAD S.L.",
    "municipality": "SANTA CRUZ DE TENERIFE",
    "date": 2017,
    "category": "SISTEMAS DE INFORMACION GEOGRAFICA Y CARTOGRAFICA",
    "LAT": "28°40′46″N",
    "LON": "16°14′28″O",
    "lat": 28.679444444,
    "lon": -16.241111111
  },
  {
    "title": "PRESTACIÓN DE SERVICIOS DOCENTES DE LA ACCIÓN FORMATIVA INICIACIÓN A LOS SISTEMAS DE INFORMACIÓN GEOGRÁFICA: QGIS PARA PROYECTOS DE ACCESIBILIDAD",
    "municipality": "SANTA CRUZ DE TENERIFE",
    "date": 2016,
    "category": "SISTEMAS DE INFORMACION GEOGRAFICA Y CARTOGRAFICA",
    "LAT": "28°40′54″N",
    "LON": "16°14′21″O",
    "lat": 28.681666667,
    "lon": -16.239166667
  },
  {
    "title": "ACTUALIZACIÓN DE LA DIGITALIZACIÓN DE LA MUESTRA ESTADÍSTICA DE ESTABLECIMIENTOS TURÍSTICOS DE LA ISLA DE TENERIFE",
    "municipality": "SANTA CRUZ DE TENERIFE",
    "date": 2012,
    "category": "SISTEMAS DE INFORMACION GEOGRAFICA Y CARTOGRAFICA",
    "LAT": "28°41′01″N",
    "LON": "16°14′14″O",
    "lat": 28.683611111,
    "lon": -16.237222222
  },
  {
    "title": "GEORREFERENCIACIÓN DE LAS VALLAS PUBLICITARIAS EN EL ENTORNO DEL ÁREA METROPOLITANA DE TENERIFE, GESTIÓN DE GOOGLE MAPS, GOOGLE EARTH Y ELABORACIÓN DE MAPAS CON INFORMACIÓN DE INTERÉS PARA CONTRATANTES",
    "municipality": "SANTA CRUZ DE TENERIFE",
    "date": 2011,
    "category": "SISTEMAS DE INFORMACION GEOGRAFICA Y CARTOGRAFICA",
    "LAT": "28°41′08″N",
    "LON": "16°14′06″O",
    "lat": 28.685555556,
    "lon": -16.235
  },
  {
    "title": "REVISIÓN DE LOS CONTENIDOS DE LA SECCIÓN ATLAS DIGITAL DEL SITIO",
    "municipality": "SANTA CRUZ DE TENERIFE",
    "date": 2011,
    "category": "SISTEMAS DE INFORMACION GEOGRAFICA Y CARTOGRAFICA",
    "LAT": "28°41′15″N",
    "LON": "16°13′59″O",
    "lat": 28.6875,
    "lon": -16.233055556
  },
  {
    "title": "GEORREFERENCIACIÓN DE LOS HITOS DE LAS DOCE RUTAS EN COCHE EDITADAS POR TENERIFE RURAL, TANTO EN GOOGLE MAPS COMO EN FOURSQUARE",
    "municipality": "SANTA CRUZ DE TENERIFE",
    "date": 2011,
    "category": "SISTEMAS DE INFORMACION GEOGRAFICA Y CARTOGRAFICA",
    "LAT": "28°41′22″N",
    "LON": "16°13′52″O",
    "lat": 28.689444444,
    "lon": -16.231111111
  },
  {
    "title": "DIGITALIZACIÓN DE LA INFORMACIÓN DE LA PÁGINA WEB www.todotenerife.es",
    "municipality": "SANTA CRUZ DE TENERIFE",
    "date": 2009,
    "category": "SISTEMAS DE INFORMACION GEOGRAFICA Y CARTOGRAFICA",
    "LAT": "28°41′30″N",
    "LON": "16°13′45″O",
    "lat": 28.691666667,
    "lon": -16.229166667
  },
  {
    "title": "DIAGNÓSTICO DE LA WEB DEL BANCO DE DATOS DEL CABILDO DE TENERIFE",
    "municipality": "SANTA CRUZ DE TENERIFE",
    "date": 2007,
    "category": "SISTEMAS DE INFORMACION GEOGRAFICA Y CARTOGRAFICA",
    "LAT": "28°41′37″N",
    "LON": "16°13′38″O",
    "lat": 28.693611111,
    "lon": -16.227222222
  },
  {
    "title": "DIGITALIZACIÓN DE LA MUESTRA ESTADÍSTICA DE ESTABLECIMIENTOS TURÍSTICOS DE LA ISLA DE TENERIFE",
    "municipality": "SANTA CRUZ DE TENERIFE",
    "date": 2006,
    "category": "SISTEMAS DE INFORMACION GEOGRAFICA Y CARTOGRAFICA",
    "LAT": "28°41′44″N",
    "LON": "16°13′30″O",
    "lat": 28.695555556,
    "lon": -16.225
  },
  {
    "title": "ANÁLISIS DE LA INFORMACIÓN TERRITORIAL EXISTENTE DENTRO DEL CABILDO DE TENERIFE SUSCEPTIBLE DE FORMAR PARTE DE LA FUTURA INICIATIVA ATLAS DE TENERIFE",
    "municipality": "SANTA CRUZ DE TENERIFE",
    "date": 2005,
    "category": "SISTEMAS DE INFORMACION GEOGRAFICA Y CARTOGRAFICA",
    "LAT": "28°41′51″N",
    "LON": "16°13′23″O",
    "lat": 28.6975,
    "lon": -16.223055556
  },